[
  {
    "id": 727801,
    "name": "Rakitovo",
    "country": "BG",
    "coord": {
      "lon": 24.08333,
      "lat": 41.98333
    }
  },
  {
    "id": 725293,
    "name": "Obshtina Zlataritsa",
    "country": "BG",
    "coord": {
      "lon": 25.98333,
      "lat": 43.066669
    }
  },
  {
    "id": 725295,
    "name": "Zlataritsa",
    "country": "BG",
    "coord": {
      "lon": 25.9,
      "lat": 43.049999
    }
  },
  {
    "id": 728733,
    "name": "Obshtina Novi Pazar",
    "country": "BG",
    "coord": {
      "lon": 27.216669,
      "lat": 43.416672
    }
  },
  {
    "id": 728734,
    "name": "Novi Pazar",
    "country": "BG",
    "coord": {
      "lon": 27.200001,
      "lat": 43.349998
    }
  },
  {
    "id": 730651,
    "name": "Kaolinovo",
    "country": "BG",
    "coord": {
      "lon": 27.116671,
      "lat": 43.616669
    }
  },
  {
    "id": 732455,
    "name": "Obshtina Chiprovtsi",
    "country": "BG",
    "coord": {
      "lon": 22.9,
      "lat": 43.416672
    }
  },
  {
    "id": 727752,
    "name": "Ravna",
    "country": "BG",
    "coord": {
      "lon": 22.959169,
      "lat": 43.386669
    }
  },
  {
    "id": 6461132,
    "name": "Isperikhovo",
    "country": "BG",
    "coord": {
      "lon": 24.433331,
      "lat": 42.083328
    }
  },
  {
    "id": 730864,
    "name": "Isperikhovo",
    "country": "BG",
    "coord": {
      "lon": 24.433331,
      "lat": 42.083328
    }
  },
  {
    "id": 6460022,
    "name": "Bulgarovo",
    "country": "BG",
    "coord": {
      "lon": 27.299999,
      "lat": 42.616669
    }
  },
  {
    "id": 732796,
    "name": "Bŭlgarovo",
    "country": "BG",
    "coord": {
      "lon": 27.304581,
      "lat": 42.621361
    }
  },
  {
    "id": 726244,
    "name": "Obshtina Tsenovo",
    "country": "BG",
    "coord": {
      "lon": 25.616671,
      "lat": 43.583328
    }
  },
  {
    "id": 6460210,
    "name": "Dolna Studena",
    "country": "BG",
    "coord": {
      "lon": 25.700001,
      "lat": 43.51667
    }
  },
  {
    "id": 732114,
    "name": "Dolna Studena",
    "country": "BG",
    "coord": {
      "lon": 25.700001,
      "lat": 43.51667
    }
  },
  {
    "id": 733315,
    "name": "Obshtina Belitsa",
    "country": "BG",
    "coord": {
      "lon": 23.58333,
      "lat": 42.01667
    }
  },
  {
    "id": 733322,
    "name": "Belitsa",
    "country": "BG",
    "coord": {
      "lon": 23.5725,
      "lat": 41.95694
    }
  },
  {
    "id": 733715,
    "name": "Obshtina Aksakovo",
    "country": "BG",
    "coord": {
      "lon": 27.85,
      "lat": 43.316669
    }
  },
  {
    "id": 733716,
    "name": "Aksakovo",
    "country": "BG",
    "coord": {
      "lon": 27.816669,
      "lat": 43.25
    }
  },
  {
    "id": 732456,
    "name": "Chiprovtsi",
    "country": "BG",
    "coord": {
      "lon": 22.880831,
      "lat": 43.384171
    }
  },
  {
    "id": 727030,
    "name": "Smolyan",
    "country": "BG",
    "coord": {
      "lon": 24.69194,
      "lat": 41.585281
    }
  },
  {
    "id": 864601,
    "name": "Obshtina Tundzha",
    "country": "BG",
    "coord": {
      "lon": 26.450001,
      "lat": 42.349998
    }
  },
  {
    "id": 6461375,
    "name": "Kabile",
    "country": "BG",
    "coord": {
      "lon": 26.48333,
      "lat": 42.533329
    }
  },
  {
    "id": 730799,
    "name": "Kabile",
    "country": "BG",
    "coord": {
      "lon": 26.48333,
      "lat": 42.533329
    }
  },
  {
    "id": 726463,
    "name": "Obshtina Teteven",
    "country": "BG",
    "coord": {
      "lon": 24.26667,
      "lat": 42.916672
    }
  },
  {
    "id": 6459390,
    "name": "Bulgarski izvor",
    "country": "BG",
    "coord": {
      "lon": 24.283331,
      "lat": 43.033329
    }
  },
  {
    "id": 732794,
    "name": "Bŭlgarski Izvor",
    "country": "BG",
    "coord": {
      "lon": 24.283331,
      "lat": 43.033329
    }
  },
  {
    "id": 733473,
    "name": "Obshtina Banite",
    "country": "BG",
    "coord": {
      "lon": 25,
      "lat": 41.700001
    }
  },
  {
    "id": 733474,
    "name": "Banite",
    "country": "BG",
    "coord": {
      "lon": 25.01667,
      "lat": 41.616669
    }
  },
  {
    "id": 731464,
    "name": "General-Toshevo",
    "country": "BG",
    "coord": {
      "lon": 28.033331,
      "lat": 43.700001
    }
  },
  {
    "id": 731695,
    "name": "Obshtina Elena",
    "country": "BG",
    "coord": {
      "lon": 25.950001,
      "lat": 42.916672
    }
  },
  {
    "id": 731207,
    "name": "Gorni Kray",
    "country": "BG",
    "coord": {
      "lon": 25.783331,
      "lat": 42.816669
    }
  },
  {
    "id": 6460260,
    "name": "Obnova",
    "country": "BG",
    "coord": {
      "lon": 24.98333,
      "lat": 43.433331
    }
  },
  {
    "id": 728685,
    "name": "Obnova",
    "country": "BG",
    "coord": {
      "lon": 24.98333,
      "lat": 43.433331
    }
  },
  {
    "id": 726128,
    "name": "Obshtina Tvŭrditsa",
    "country": "BG",
    "coord": {
      "lon": 26,
      "lat": 42.73333
    }
  },
  {
    "id": 6460606,
    "name": "Shivachevo",
    "country": "BG",
    "coord": {
      "lon": 26.033331,
      "lat": 42.683331
    }
  },
  {
    "id": 727261,
    "name": "Shivachevo",
    "country": "BG",
    "coord": {
      "lon": 26.033331,
      "lat": 42.683331
    }
  },
  {
    "id": 6459184,
    "name": "Batanovci",
    "country": "BG",
    "coord": {
      "lon": 22.95056,
      "lat": 42.59972
    }
  },
  {
    "id": 726489,
    "name": "Batanovtsi",
    "country": "BG",
    "coord": {
      "lon": 22.95056,
      "lat": 42.59972
    }
  },
  {
    "id": 6459672,
    "name": "Cherniche",
    "country": "BG",
    "coord": {
      "lon": 23.133329,
      "lat": 41.849998
    }
  },
  {
    "id": 732559,
    "name": "Cherniche",
    "country": "BG",
    "coord": {
      "lon": 23.133329,
      "lat": 41.849998
    }
  },
  {
    "id": 6459955,
    "name": "Belozem",
    "country": "BG",
    "coord": {
      "lon": 25.033331,
      "lat": 42.200001
    }
  },
  {
    "id": 733284,
    "name": "Belozem",
    "country": "BG",
    "coord": {
      "lon": 25.033331,
      "lat": 42.200001
    }
  },
  {
    "id": 6459935,
    "name": "Stroevo",
    "country": "BG",
    "coord": {
      "lon": 24.683331,
      "lat": 42.23333
    }
  },
  {
    "id": 726708,
    "name": "Stroevo",
    "country": "BG",
    "coord": {
      "lon": 24.683331,
      "lat": 42.23333
    }
  },
  {
    "id": 732491,
    "name": "Cherven Bryag",
    "country": "BG",
    "coord": {
      "lon": 24.1,
      "lat": 43.26667
    }
  },
  {
    "id": 732489,
    "name": "Cherveni Bryag",
    "country": "BG",
    "coord": {
      "lon": 24.1,
      "lat": 43.26667
    }
  },
  {
    "id": 6458938,
    "name": "Kuklen",
    "country": "BG",
    "coord": {
      "lon": 24.77949,
      "lat": 42.037251
    }
  },
  {
    "id": 729834,
    "name": "Kuklen",
    "country": "BG",
    "coord": {
      "lon": 24.783331,
      "lat": 42.033329
    }
  },
  {
    "id": 729123,
    "name": "Obshtina Tsarevo",
    "country": "BG",
    "coord": {
      "lon": 27.816669,
      "lat": 42.099998
    }
  },
  {
    "id": 729125,
    "name": "Tsarevo",
    "country": "BG",
    "coord": {
      "lon": 27.85,
      "lat": 42.166672
    }
  },
  {
    "id": 6461131,
    "name": "Bjaga",
    "country": "BG",
    "coord": {
      "lon": 24.366671,
      "lat": 42.066669
    }
  },
  {
    "id": 732723,
    "name": "Byaga",
    "country": "BG",
    "coord": {
      "lon": 24.366671,
      "lat": 42.066669
    }
  },
  {
    "id": 6459518,
    "name": "Biser",
    "country": "BG",
    "coord": {
      "lon": 25.98333,
      "lat": 41.866669
    }
  },
  {
    "id": 733221,
    "name": "Biser",
    "country": "BG",
    "coord": {
      "lon": 25.98333,
      "lat": 41.866669
    }
  },
  {
    "id": 727422,
    "name": "Obshtina Satovcha",
    "country": "BG",
    "coord": {
      "lon": 24.01667,
      "lat": 41.616669
    }
  },
  {
    "id": 6459658,
    "name": "Zhizhevo",
    "country": "BG",
    "coord": {
      "lon": 24.033331,
      "lat": 41.549999
    }
  },
  {
    "id": 725334,
    "name": "Zhizhevo",
    "country": "BG",
    "coord": {
      "lon": 24.033331,
      "lat": 41.549999
    }
  },
  {
    "id": 733308,
    "name": "Obshtina Belogradchik",
    "country": "BG",
    "coord": {
      "lon": 22.6,
      "lat": 43.650002
    }
  },
  {
    "id": 733309,
    "name": "Belogradchik",
    "country": "BG",
    "coord": {
      "lon": 22.683611,
      "lat": 43.62722
    }
  },
  {
    "id": 728124,
    "name": "Polski Trumbesh",
    "country": "BG",
    "coord": {
      "lon": 25.649719,
      "lat": 43.38361
    }
  },
  {
    "id": 732882,
    "name": "Obshtina Breznik",
    "country": "BG",
    "coord": {
      "lon": 22.85,
      "lat": 42.716671
    }
  },
  {
    "id": 732883,
    "name": "Breznik",
    "country": "BG",
    "coord": {
      "lon": 22.89806,
      "lat": 42.74139
    }
  },
  {
    "id": 727454,
    "name": "Obshtina Samuil",
    "country": "BG",
    "coord": {
      "lon": 26.799999,
      "lat": 43.599998
    }
  },
  {
    "id": 727455,
    "name": "Samuil",
    "country": "BG",
    "coord": {
      "lon": 26.75,
      "lat": 43.51667
    }
  },
  {
    "id": 6461253,
    "name": "Samoranovo",
    "country": "BG",
    "coord": {
      "lon": 23.16667,
      "lat": 42.25
    }
  },
  {
    "id": 727460,
    "name": "Samoranovo",
    "country": "BG",
    "coord": {
      "lon": 23.16667,
      "lat": 42.25
    }
  },
  {
    "id": 731054,
    "name": "Obshtina Gramada",
    "country": "BG",
    "coord": {
      "lon": 22.65,
      "lat": 43.833328
    }
  },
  {
    "id": 731056,
    "name": "Gramada",
    "country": "BG",
    "coord": {
      "lon": 22.658609,
      "lat": 43.834438
    }
  },
  {
    "id": 6461726,
    "name": "Lozen",
    "country": "BG",
    "coord": {
      "lon": 23.48333,
      "lat": 42.599998
    }
  },
  {
    "id": 729543,
    "name": "Lozen",
    "country": "BG",
    "coord": {
      "lon": 23.48333,
      "lat": 42.599998
    }
  },
  {
    "id": 733055,
    "name": "Borovets",
    "country": "BG",
    "coord": {
      "lon": 23,
      "lat": 42.116669
    }
  },
  {
    "id": 6460074,
    "name": "Ravda",
    "country": "BG",
    "coord": {
      "lon": 27.683331,
      "lat": 42.650002
    }
  },
  {
    "id": 727759,
    "name": "Ravda",
    "country": "BG",
    "coord": {
      "lon": 27.676809,
      "lat": 42.645081
    }
  },
  {
    "id": 730752,
    "name": "Kalipetrovo",
    "country": "BG",
    "coord": {
      "lon": 27.23333,
      "lat": 44.083328
    }
  },
  {
    "id": 726878,
    "name": "Stanchevo",
    "country": "BG",
    "coord": {
      "lon": 27.23333,
      "lat": 44.083328
    }
  },
  {
    "id": 731463,
    "name": "Obshtina General-Toshevo",
    "country": "BG",
    "coord": {
      "lon": 28.08333,
      "lat": 43.73333
    }
  },
  {
    "id": 6460456,
    "name": "Spasovo",
    "country": "BG",
    "coord": {
      "lon": 28.283331,
      "lat": 43.700001
    }
  },
  {
    "id": 726954,
    "name": "Spasovo",
    "country": "BG",
    "coord": {
      "lon": 28.283331,
      "lat": 43.700001
    }
  },
  {
    "id": 6459938,
    "name": "Caracovo",
    "country": "BG",
    "coord": {
      "lon": 24.683331,
      "lat": 42.200001
    }
  },
  {
    "id": 726274,
    "name": "Tsaratsovo",
    "country": "BG",
    "coord": {
      "lon": 24.683331,
      "lat": 42.200001
    }
  },
  {
    "id": 6459616,
    "name": "Rupite",
    "country": "BG",
    "coord": {
      "lon": 23.25,
      "lat": 41.433331
    }
  },
  {
    "id": 728923,
    "name": "Rupite",
    "country": "BG",
    "coord": {
      "lon": 23.25,
      "lat": 41.433331
    }
  },
  {
    "id": 730836,
    "name": "Obshtina Ivaylovgrad",
    "country": "BG",
    "coord": {
      "lon": 26,
      "lat": 41.48333
    }
  },
  {
    "id": 730837,
    "name": "Ivaylovgrad",
    "country": "BG",
    "coord": {
      "lon": 26.133329,
      "lat": 41.533329
    }
  },
  {
    "id": 733431,
    "name": "Obshtina Batak",
    "country": "BG",
    "coord": {
      "lon": 24.216669,
      "lat": 41.866669
    }
  },
  {
    "id": 733433,
    "name": "Batak",
    "country": "BG",
    "coord": {
      "lon": 24.216669,
      "lat": 41.950001
    }
  },
  {
    "id": 6459669,
    "name": "Krupnik",
    "country": "BG",
    "coord": {
      "lon": 23.116671,
      "lat": 41.849998
    }
  },
  {
    "id": 729884,
    "name": "Krupnik",
    "country": "BG",
    "coord": {
      "lon": 23.116671,
      "lat": 41.849998
    }
  },
  {
    "id": 725270,
    "name": "Obshtina Zlatograd",
    "country": "BG",
    "coord": {
      "lon": 25.066669,
      "lat": 41.400002
    }
  },
  {
    "id": 725271,
    "name": "Zlatograd",
    "country": "BG",
    "coord": {
      "lon": 25.1,
      "lat": 41.383331
    }
  },
  {
    "id": 6460063,
    "name": "Akhtopol",
    "country": "BG",
    "coord": {
      "lon": 27.950001,
      "lat": 42.099998
    }
  },
  {
    "id": 733722,
    "name": "Akhtopol",
    "country": "BG",
    "coord": {
      "lon": 27.950001,
      "lat": 42.099998
    }
  },
  {
    "id": 6459559,
    "name": "Dobrinishhe",
    "country": "BG",
    "coord": {
      "lon": 23.566669,
      "lat": 41.816669
    }
  },
  {
    "id": 732205,
    "name": "Dobrinishte",
    "country": "BG",
    "coord": {
      "lon": 23.566669,
      "lat": 41.816669
    }
  },
  {
    "id": 727066,
    "name": "Obshtina Slivo Pole",
    "country": "BG",
    "coord": {
      "lon": 26.299999,
      "lat": 43.966671
    }
  },
  {
    "id": 727067,
    "name": "Slivo Pole",
    "country": "BG",
    "coord": {
      "lon": 26.200001,
      "lat": 43.950001
    }
  },
  {
    "id": 732954,
    "name": "Bozhurishte",
    "country": "BG",
    "coord": {
      "lon": 23.200001,
      "lat": 42.75
    }
  },
  {
    "id": 729984,
    "name": "Kranevo",
    "country": "BG",
    "coord": {
      "lon": 28.049999,
      "lat": 43.333328
    }
  },
  {
    "id": 6459407,
    "name": "Oreshak",
    "country": "BG",
    "coord": {
      "lon": 24.783331,
      "lat": 42.883331
    }
  },
  {
    "id": 728612,
    "name": "Oreshak",
    "country": "BG",
    "coord": {
      "lon": 24.76667,
      "lat": 42.883331
    }
  },
  {
    "id": 728106,
    "name": "Obshtina Pomorie",
    "country": "BG",
    "coord": {
      "lon": 27.549999,
      "lat": 42.73333
    }
  },
  {
    "id": 6460083,
    "name": "Kableshkovo",
    "country": "BG",
    "coord": {
      "lon": 27.566669,
      "lat": 42.650002
    }
  },
  {
    "id": 730795,
    "name": "Kableshkovo",
    "country": "BG",
    "coord": {
      "lon": 27.566481,
      "lat": 42.66066
    }
  },
  {
    "id": 864572,
    "name": "Obshtina Mirkovo",
    "country": "BG",
    "coord": {
      "lon": 23.966669,
      "lat": 42.666672
    }
  },
  {
    "id": 729064,
    "name": "Mirkovo",
    "country": "BG",
    "coord": {
      "lon": 23.98333,
      "lat": 42.700001
    }
  },
  {
    "id": 725622,
    "name": "Obshtina Vŭrshets",
    "country": "BG",
    "coord": {
      "lon": 23.33333,
      "lat": 43.216671
    }
  },
  {
    "id": 725623,
    "name": "Vurshets",
    "country": "BG",
    "coord": {
      "lon": 23.28611,
      "lat": 43.195278
    }
  },
  {
    "id": 727440,
    "name": "Obshtina Sapareva Banya",
    "country": "BG",
    "coord": {
      "lon": 23.316669,
      "lat": 42.283329
    }
  },
  {
    "id": 6461248,
    "name": "Saparevo",
    "country": "BG",
    "coord": {
      "lon": 23.299999,
      "lat": 42.299999
    }
  },
  {
    "id": 727441,
    "name": "Sapareva Banya",
    "country": "BG",
    "coord": {
      "lon": 23.26667,
      "lat": 42.283329
    }
  },
  {
    "id": 727439,
    "name": "Saparevo",
    "country": "BG",
    "coord": {
      "lon": 23.299999,
      "lat": 42.299999
    }
  },
  {
    "id": 6459602,
    "name": "Gabrene",
    "country": "BG",
    "coord": {
      "lon": 22.971109,
      "lat": 41.365559
    }
  },
  {
    "id": 731564,
    "name": "Gabrene",
    "country": "BG",
    "coord": {
      "lon": 22.971109,
      "lat": 41.365559
    }
  },
  {
    "id": 6459923,
    "name": "Vojvodinovo",
    "country": "BG",
    "coord": {
      "lon": 24.799999,
      "lat": 42.200001
    }
  },
  {
    "id": 725749,
    "name": "Voyvodinovo",
    "country": "BG",
    "coord": {
      "lon": 24.799999,
      "lat": 42.200001
    }
  },
  {
    "id": 727886,
    "name": "Pŭrvomay",
    "country": "BG",
    "coord": {
      "lon": 25.216669,
      "lat": 42.099998
    }
  },
  {
    "id": 733637,
    "name": "Obshtina Ardino",
    "country": "BG",
    "coord": {
      "lon": 25.15,
      "lat": 41.599998
    }
  },
  {
    "id": 729708,
    "name": "Latinka",
    "country": "BG",
    "coord": {
      "lon": 25.133329,
      "lat": 41.583328
    }
  },
  {
    "id": 6459983,
    "name": "Cheshnegirovo",
    "country": "BG",
    "coord": {
      "lon": 24.966669,
      "lat": 42.116669
    }
  },
  {
    "id": 732481,
    "name": "Cheshnegirovo",
    "country": "BG",
    "coord": {
      "lon": 24.966669,
      "lat": 42.116669
    }
  },
  {
    "id": 6459650,
    "name": "Sklave",
    "country": "BG",
    "coord": {
      "lon": 23.316669,
      "lat": 41.51667
    }
  },
  {
    "id": 727150,
    "name": "Sklave",
    "country": "BG",
    "coord": {
      "lon": 23.316669,
      "lat": 41.51667
    }
  },
  {
    "id": 6460021,
    "name": "Banevo",
    "country": "BG",
    "coord": {
      "lon": 27.4,
      "lat": 42.633331
    }
  },
  {
    "id": 733480,
    "name": "Banevo",
    "country": "BG",
    "coord": {
      "lon": 27.391541,
      "lat": 42.629261
    }
  },
  {
    "id": 728388,
    "name": "Obshtina Pavel Banya",
    "country": "BG",
    "coord": {
      "lon": 25.133329,
      "lat": 42.633331
    }
  },
  {
    "id": 728389,
    "name": "Pavel Banya",
    "country": "BG",
    "coord": {
      "lon": 25.200001,
      "lat": 42.599998
    }
  },
  {
    "id": 6459933,
    "name": "Rogosh",
    "country": "BG",
    "coord": {
      "lon": 24.866671,
      "lat": 42.183331
    }
  },
  {
    "id": 727608,
    "name": "Rogosh",
    "country": "BG",
    "coord": {
      "lon": 24.866671,
      "lat": 42.183331
    }
  },
  {
    "id": 6459928,
    "name": "Kostievo",
    "country": "BG",
    "coord": {
      "lon": 24.616671,
      "lat": 42.183331
    }
  },
  {
    "id": 730087,
    "name": "Kostievo",
    "country": "BG",
    "coord": {
      "lon": 24.616671,
      "lat": 42.183331
    }
  },
  {
    "id": 6461331,
    "name": "Pavelsko",
    "country": "BG",
    "coord": {
      "lon": 24.700001,
      "lat": 41.866669
    }
  },
  {
    "id": 728387,
    "name": "Pavelsko",
    "country": "BG",
    "coord": {
      "lon": 24.700001,
      "lat": 41.866669
    }
  },
  {
    "id": 6459612,
    "name": "Marikostinovo",
    "country": "BG",
    "coord": {
      "lon": 23.35,
      "lat": 41.433331
    }
  },
  {
    "id": 729244,
    "name": "Marikostinovo",
    "country": "BG",
    "coord": {
      "lon": 23.35,
      "lat": 41.433331
    }
  },
  {
    "id": 6459641,
    "name": "Levunovo",
    "country": "BG",
    "coord": {
      "lon": 23.299999,
      "lat": 41.48333
    }
  },
  {
    "id": 729634,
    "name": "Levunovo",
    "country": "BG",
    "coord": {
      "lon": 23.299999,
      "lat": 41.48333
    }
  },
  {
    "id": 6461454,
    "name": "Kardam",
    "country": "BG",
    "coord": {
      "lon": 26.283331,
      "lat": 43.366669
    }
  },
  {
    "id": 730571,
    "name": "Kardam",
    "country": "BG",
    "coord": {
      "lon": 26.283331,
      "lat": 43.366669
    }
  },
  {
    "id": 728815,
    "name": "Obshtina Nevestino",
    "country": "BG",
    "coord": {
      "lon": 22.83333,
      "lat": 42.166672
    }
  },
  {
    "id": 728818,
    "name": "Nevestino",
    "country": "BG",
    "coord": {
      "lon": 22.853609,
      "lat": 42.25639
    }
  },
  {
    "id": 6460259,
    "name": "Malchika",
    "country": "BG",
    "coord": {
      "lon": 25.1,
      "lat": 43.416672
    }
  },
  {
    "id": 729392,
    "name": "Malchika",
    "country": "BG",
    "coord": {
      "lon": 25.1,
      "lat": 43.416672
    }
  },
  {
    "id": 732703,
    "name": "Obshtina Byala Slatina",
    "country": "BG",
    "coord": {
      "lon": 23.933331,
      "lat": 43.466671
    }
  },
  {
    "id": 732704,
    "name": "Byala Slatina",
    "country": "BG",
    "coord": {
      "lon": 23.933331,
      "lat": 43.466671
    }
  },
  {
    "id": 6459663,
    "name": "Slashhen",
    "country": "BG",
    "coord": {
      "lon": 24.01667,
      "lat": 41.5
    }
  },
  {
    "id": 727119,
    "name": "Slashten",
    "country": "BG",
    "coord": {
      "lon": 24.01667,
      "lat": 41.5
    }
  },
  {
    "id": 6459396,
    "name": "Ribarica",
    "country": "BG",
    "coord": {
      "lon": 24.41667,
      "lat": 42.833328
    }
  },
  {
    "id": 727645,
    "name": "Ribaritsa",
    "country": "BG",
    "coord": {
      "lon": 24.41667,
      "lat": 42.833328
    }
  },
  {
    "id": 6461562,
    "name": "Dolna Kremena",
    "country": "BG",
    "coord": {
      "lon": 23.73333,
      "lat": 43.166672
    }
  },
  {
    "id": 732132,
    "name": "Dolna Kremena",
    "country": "BG",
    "coord": {
      "lon": 23.73333,
      "lat": 43.166672
    }
  },
  {
    "id": 6460270,
    "name": "Cherkovica",
    "country": "BG",
    "coord": {
      "lon": 24.83333,
      "lat": 43.683331
    }
  },
  {
    "id": 732591,
    "name": "Cherkovitsa",
    "country": "BG",
    "coord": {
      "lon": 24.83333,
      "lat": 43.683331
    }
  },
  {
    "id": 733648,
    "name": "Obshtina Apriltsi",
    "country": "BG",
    "coord": {
      "lon": 24.91667,
      "lat": 42.833328
    }
  },
  {
    "id": 733649,
    "name": "Apriltsi",
    "country": "BG",
    "coord": {
      "lon": 24.917589,
      "lat": 42.841419
    }
  },
  {
    "id": 725924,
    "name": "Vetrino",
    "country": "BG",
    "coord": {
      "lon": 27.433331,
      "lat": 43.316669
    }
  },
  {
    "id": 6459244,
    "name": "Dolno Linevo",
    "country": "BG",
    "coord": {
      "lon": 23.323891,
      "lat": 43.842499
    }
  },
  {
    "id": 732060,
    "name": "Dolno Linevo",
    "country": "BG",
    "coord": {
      "lon": 23.323891,
      "lat": 43.842499
    }
  },
  {
    "id": 6461709,
    "name": "Mramor",
    "country": "BG",
    "coord": {
      "lon": 23.26667,
      "lat": 42.783329
    }
  },
  {
    "id": 728945,
    "name": "Mramor",
    "country": "BG",
    "coord": {
      "lon": 23.27342,
      "lat": 42.78627
    }
  },
  {
    "id": 731457,
    "name": "Obshtina Georgi-Damyanovo",
    "country": "BG",
    "coord": {
      "lon": 23,
      "lat": 43.349998
    }
  },
  {
    "id": 6459238,
    "name": "Gavril Genovo",
    "country": "BG",
    "coord": {
      "lon": 23.058889,
      "lat": 43.397499
    }
  },
  {
    "id": 731498,
    "name": "Gavril Genovo",
    "country": "BG",
    "coord": {
      "lon": 23.058889,
      "lat": 43.397499
    }
  },
  {
    "id": 6459930,
    "name": "Manole",
    "country": "BG",
    "coord": {
      "lon": 24.933331,
      "lat": 42.183331
    }
  },
  {
    "id": 729264,
    "name": "Manole",
    "country": "BG",
    "coord": {
      "lon": 24.933331,
      "lat": 42.183331
    }
  },
  {
    "id": 6459934,
    "name": "Skutare",
    "country": "BG",
    "coord": {
      "lon": 24.83333,
      "lat": 42.183331
    }
  },
  {
    "id": 727129,
    "name": "Skutare",
    "country": "BG",
    "coord": {
      "lon": 24.83333,
      "lat": 42.183331
    }
  },
  {
    "id": 6459787,
    "name": "Ezerovo",
    "country": "BG",
    "coord": {
      "lon": 27.76667,
      "lat": 43.200001
    }
  },
  {
    "id": 731612,
    "name": "Ezerovo",
    "country": "BG",
    "coord": {
      "lon": 27.76667,
      "lat": 43.200001
    }
  },
  {
    "id": 6461602,
    "name": "Vrachesh",
    "country": "BG",
    "coord": {
      "lon": 23.75,
      "lat": 42.883331
    }
  },
  {
    "id": 725732,
    "name": "Vrachesh",
    "country": "BG",
    "coord": {
      "lon": 23.75,
      "lat": 42.883331
    }
  },
  {
    "id": 732915,
    "name": "Bregovo",
    "country": "BG",
    "coord": {
      "lon": 22.6425,
      "lat": 44.151669
    }
  },
  {
    "id": 728347,
    "name": "Obshtina Iskŭr",
    "country": "BG",
    "coord": {
      "lon": 24.283331,
      "lat": 43.5
    }
  },
  {
    "id": 6460274,
    "name": "Dolni Lukovit",
    "country": "BG",
    "coord": {
      "lon": 24.216669,
      "lat": 43.51667
    }
  },
  {
    "id": 732091,
    "name": "Dolni Lukovit",
    "country": "BG",
    "coord": {
      "lon": 24.216669,
      "lat": 43.51667
    }
  },
  {
    "id": 6460031,
    "name": "Debelt",
    "country": "BG",
    "coord": {
      "lon": 27.26667,
      "lat": 42.400002
    }
  },
  {
    "id": 732356,
    "name": "Debelt",
    "country": "BG",
    "coord": {
      "lon": 27.2631,
      "lat": 42.402561
    }
  },
  {
    "id": 6461159,
    "name": "Govedare",
    "country": "BG",
    "coord": {
      "lon": 24.5,
      "lat": 42.150002
    }
  },
  {
    "id": 731104,
    "name": "Govedare",
    "country": "BG",
    "coord": {
      "lon": 24.5,
      "lat": 42.150002
    }
  },
  {
    "id": 6458935,
    "name": "Sopot",
    "country": "BG",
    "coord": {
      "lon": 24.743099,
      "lat": 42.652142
    }
  },
  {
    "id": 6460007,
    "name": "Anevo",
    "country": "BG",
    "coord": {
      "lon": 24.73333,
      "lat": 42.650002
    }
  },
  {
    "id": 726976,
    "name": "Sopot",
    "country": "BG",
    "coord": {
      "lon": 24.75,
      "lat": 42.650002
    }
  },
  {
    "id": 733669,
    "name": "Anevo",
    "country": "BG",
    "coord": {
      "lon": 24.73333,
      "lat": 42.650002
    }
  },
  {
    "id": 864600,
    "name": "Obshtina Madzharovo",
    "country": "BG",
    "coord": {
      "lon": 25.9,
      "lat": 41.683331
    }
  },
  {
    "id": 729428,
    "name": "Madzharovo",
    "country": "BG",
    "coord": {
      "lon": 25.866671,
      "lat": 41.633331
    }
  },
  {
    "id": 726172,
    "name": "Obshtina Tŭrgovishte",
    "country": "BG",
    "coord": {
      "lon": 26.566669,
      "lat": 43.25
    }
  },
  {
    "id": 6461498,
    "name": "Cherkovna",
    "country": "BG",
    "coord": {
      "lon": 26.566669,
      "lat": 43.150002
    }
  },
  {
    "id": 732590,
    "name": "Cherkovna",
    "country": "BG",
    "coord": {
      "lon": 26.566669,
      "lat": 43.150002
    }
  },
  {
    "id": 732098,
    "name": "Obshtina Dolni Dŭbnik",
    "country": "BG",
    "coord": {
      "lon": 24.41667,
      "lat": 43.366669
    }
  },
  {
    "id": 6460252,
    "name": "Sadovec",
    "country": "BG",
    "coord": {
      "lon": 24.35,
      "lat": 43.299999
    }
  },
  {
    "id": 727483,
    "name": "Sadovets",
    "country": "BG",
    "coord": {
      "lon": 24.35,
      "lat": 43.299999
    }
  },
  {
    "id": 864570,
    "name": "Obshtina Stamboliyski",
    "country": "BG",
    "coord": {
      "lon": 24.51667,
      "lat": 42.116669
    }
  },
  {
    "id": 6460004,
    "name": "Kurtovo Konare",
    "country": "BG",
    "coord": {
      "lon": 24.5,
      "lat": 42.099998
    }
  },
  {
    "id": 729774,
    "name": "Kurtovo Konare",
    "country": "BG",
    "coord": {
      "lon": 24.5,
      "lat": 42.099998
    }
  },
  {
    "id": 6461690,
    "name": "Aldomirovci",
    "country": "BG",
    "coord": {
      "lon": 22.98111,
      "lat": 42.84972
    }
  },
  {
    "id": 733701,
    "name": "Aldomirovtsi",
    "country": "BG",
    "coord": {
      "lon": 22.98111,
      "lat": 42.84972
    }
  },
  {
    "id": 6461522,
    "name": "Turnava",
    "country": "BG",
    "coord": {
      "lon": 23.866671,
      "lat": 43.5
    }
  },
  {
    "id": 726163,
    "name": "Tŭrnava",
    "country": "BG",
    "coord": {
      "lon": 23.866671,
      "lat": 43.5
    }
  },
  {
    "id": 733656,
    "name": "Obshtina Antonovo",
    "country": "BG",
    "coord": {
      "lon": 26.200001,
      "lat": 43.116669
    }
  },
  {
    "id": 733657,
    "name": "Antonovo",
    "country": "BG",
    "coord": {
      "lon": 26.16667,
      "lat": 43.150002
    }
  },
  {
    "id": 725993,
    "name": "Veliko Turnovo",
    "country": "BG",
    "coord": {
      "lon": 25.62904,
      "lat": 43.081242
    }
  },
  {
    "id": 6956552,
    "name": "Асенова махала",
    "country": "BG",
    "coord": {
      "lon": 25.649929,
      "lat": 43.08643
    }
  },
  {
    "id": 6460182,
    "name": "Krasen",
    "country": "BG",
    "coord": {
      "lon": 25.98333,
      "lat": 43.73333
    }
  },
  {
    "id": 729975,
    "name": "Krasen",
    "country": "BG",
    "coord": {
      "lon": 25.98333,
      "lat": 43.73333
    }
  },
  {
    "id": 6461637,
    "name": "Vakarel",
    "country": "BG",
    "coord": {
      "lon": 23.705561,
      "lat": 42.561111
    }
  },
  {
    "id": 726070,
    "name": "Vakarel",
    "country": "BG",
    "coord": {
      "lon": 23.716669,
      "lat": 42.549999
    }
  },
  {
    "id": 6459581,
    "name": "Breznica",
    "country": "BG",
    "coord": {
      "lon": 23.66667,
      "lat": 41.666672
    }
  },
  {
    "id": 732878,
    "name": "Breznitsa",
    "country": "BG",
    "coord": {
      "lon": 23.66667,
      "lat": 41.666672
    }
  },
  {
    "id": 6459671,
    "name": "Poleto",
    "country": "BG",
    "coord": {
      "lon": 23.183331,
      "lat": 41.866669
    }
  },
  {
    "id": 728143,
    "name": "Poleto",
    "country": "BG",
    "coord": {
      "lon": 23.183331,
      "lat": 41.866669
    }
  },
  {
    "id": 6460767,
    "name": "Mirovci",
    "country": "BG",
    "coord": {
      "lon": 27.23333,
      "lat": 43.450001
    }
  },
  {
    "id": 729054,
    "name": "Mirovtsi",
    "country": "BG",
    "coord": {
      "lon": 27.23333,
      "lat": 43.450001
    }
  },
  {
    "id": 725943,
    "name": "Veselinovo",
    "country": "BG",
    "coord": {
      "lon": 26.549999,
      "lat": 42.533329
    }
  },
  {
    "id": 864567,
    "name": "Obshtina Rodopi",
    "country": "BG",
    "coord": {
      "lon": 24.683331,
      "lat": 42.033329
    }
  },
  {
    "id": 6459964,
    "name": "Brestovica",
    "country": "BG",
    "coord": {
      "lon": 24.6,
      "lat": 42.083328
    }
  },
  {
    "id": 732898,
    "name": "Brestovitsa",
    "country": "BG",
    "coord": {
      "lon": 24.6,
      "lat": 42.083328
    }
  },
  {
    "id": 729528,
    "name": "Obshtina Loznitsa",
    "country": "BG",
    "coord": {
      "lon": 26.58333,
      "lat": 43.416672
    }
  },
  {
    "id": 6459323,
    "name": "Lovsko",
    "country": "BG",
    "coord": {
      "lon": 26.616671,
      "lat": 43.400002
    }
  },
  {
    "id": 726679,
    "name": "Studenets",
    "country": "BG",
    "coord": {
      "lon": 26.6,
      "lat": 43.416672
    }
  },
  {
    "id": 729552,
    "name": "Lovsko",
    "country": "BG",
    "coord": {
      "lon": 26.616671,
      "lat": 43.400002
    }
  },
  {
    "id": 6459745,
    "name": "Ajdemir",
    "country": "BG",
    "coord": {
      "lon": 27.16667,
      "lat": 44.099998
    }
  },
  {
    "id": 733581,
    "name": "Aydemir",
    "country": "BG",
    "coord": {
      "lon": 27.16667,
      "lat": 44.099998
    }
  },
  {
    "id": 6460267,
    "name": "Muselievo",
    "country": "BG",
    "coord": {
      "lon": 24.85,
      "lat": 43.633331
    }
  },
  {
    "id": 728899,
    "name": "Muselievo",
    "country": "BG",
    "coord": {
      "lon": 24.85,
      "lat": 43.633331
    }
  },
  {
    "id": 6459931,
    "name": "Manolsko Konare",
    "country": "BG",
    "coord": {
      "lon": 24.950001,
      "lat": 42.200001
    }
  },
  {
    "id": 729260,
    "name": "Manolsko Konare",
    "country": "BG",
    "coord": {
      "lon": 24.950001,
      "lat": 42.200001
    }
  },
  {
    "id": 6460281,
    "name": "Bukovluk",
    "country": "BG",
    "coord": {
      "lon": 24.616671,
      "lat": 43.450001
    }
  },
  {
    "id": 732813,
    "name": "Bukovlŭk",
    "country": "BG",
    "coord": {
      "lon": 24.616671,
      "lat": 43.450001
    }
  },
  {
    "id": 731523,
    "name": "Gara Elin Pelin",
    "country": "BG",
    "coord": {
      "lon": 23.58333,
      "lat": 42.633331
    }
  },
  {
    "id": 730414,
    "name": "Obshtina Tsar Kaloyan",
    "country": "BG",
    "coord": {
      "lon": 26.216669,
      "lat": 43.599998
    }
  },
  {
    "id": 730415,
    "name": "Tsar Kaloyan",
    "country": "BG",
    "coord": {
      "lon": 26.25,
      "lat": 43.616669
    }
  },
  {
    "id": 6459402,
    "name": "Vrabevo",
    "country": "BG",
    "coord": {
      "lon": 24.783331,
      "lat": 42.958328
    }
  },
  {
    "id": 725738,
    "name": "Vrabevo",
    "country": "BG",
    "coord": {
      "lon": 24.816669,
      "lat": 42.98333
    }
  },
  {
    "id": 6461173,
    "name": "Pishhigovo",
    "country": "BG",
    "coord": {
      "lon": 24.433331,
      "lat": 42.25
    }
  },
  {
    "id": 728235,
    "name": "Pishtigovo",
    "country": "BG",
    "coord": {
      "lon": 24.433331,
      "lat": 42.25
    }
  },
  {
    "id": 6460393,
    "name": "Dulboki",
    "country": "BG",
    "coord": {
      "lon": 25.76667,
      "lat": 42.48333
    }
  },
  {
    "id": 731837,
    "name": "Dolboka",
    "country": "BG",
    "coord": {
      "lon": 25.76667,
      "lat": 42.48333
    }
  },
  {
    "id": 730959,
    "name": "Obshtina Gŭrmen",
    "country": "BG",
    "coord": {
      "lon": 23.85,
      "lat": 41.700001
    }
  },
  {
    "id": 6459595,
    "name": "Ribnovo",
    "country": "BG",
    "coord": {
      "lon": 23.76667,
      "lat": 41.716671
    }
  },
  {
    "id": 727632,
    "name": "Ribnovo",
    "country": "BG",
    "coord": {
      "lon": 23.76667,
      "lat": 41.716671
    }
  },
  {
    "id": 731059,
    "name": "Gradŭt",
    "country": "BG",
    "coord": {
      "lon": 24.85,
      "lat": 41.599998
    }
  },
  {
    "id": 726176,
    "name": "Turchinovo",
    "country": "BG",
    "coord": {
      "lon": 24.85,
      "lat": 41.599998
    }
  },
  {
    "id": 6461715,
    "name": "Gorni Bogrov",
    "country": "BG",
    "coord": {
      "lon": 23.533331,
      "lat": 42.716671
    }
  },
  {
    "id": 731220,
    "name": "Gorni Bogrov",
    "country": "BG",
    "coord": {
      "lon": 23.533331,
      "lat": 42.716671
    }
  },
  {
    "id": 730463,
    "name": "Obshtina Khadzhidimovo",
    "country": "BG",
    "coord": {
      "lon": 23.83333,
      "lat": 41.5
    }
  },
  {
    "id": 6459682,
    "name": "Koprivlen",
    "country": "BG",
    "coord": {
      "lon": 23.799999,
      "lat": 41.51667
    }
  },
  {
    "id": 730161,
    "name": "Koprivlen",
    "country": "BG",
    "coord": {
      "lon": 23.799999,
      "lat": 41.51667
    }
  },
  {
    "id": 6461138,
    "name": "Grashevo",
    "country": "BG",
    "coord": {
      "lon": 23.933331,
      "lat": 41.966671
    }
  },
  {
    "id": 731036,
    "name": "Grashevo",
    "country": "BG",
    "coord": {
      "lon": 23.933331,
      "lat": 41.966671
    }
  },
  {
    "id": 726692,
    "name": "Obshtina Strumyani",
    "country": "BG",
    "coord": {
      "lon": 23.200001,
      "lat": 41.633331
    }
  },
  {
    "id": 726693,
    "name": "Strumyani",
    "country": "BG",
    "coord": {
      "lon": 23.200001,
      "lat": 41.633331
    }
  },
  {
    "id": 6459190,
    "name": "Dren",
    "country": "BG",
    "coord": {
      "lon": 23.15,
      "lat": 42.416672
    }
  },
  {
    "id": 731922,
    "name": "Dren",
    "country": "BG",
    "coord": {
      "lon": 23.15,
      "lat": 42.416672
    }
  },
  {
    "id": 6459875,
    "name": "Bachkovo",
    "country": "BG",
    "coord": {
      "lon": 24.866671,
      "lat": 41.950001
    }
  },
  {
    "id": 733550,
    "name": "Bachkovo",
    "country": "BG",
    "coord": {
      "lon": 24.866671,
      "lat": 41.950001
    }
  },
  {
    "id": 6459963,
    "name": "Brestnik",
    "country": "BG",
    "coord": {
      "lon": 24.76667,
      "lat": 42.049999
    }
  },
  {
    "id": 732905,
    "name": "Brestnik",
    "country": "BG",
    "coord": {
      "lon": 24.76667,
      "lat": 42.049999
    }
  },
  {
    "id": 6460878,
    "name": "Radanovo",
    "country": "BG",
    "coord": {
      "lon": 25.633329,
      "lat": 43.349998
    }
  },
  {
    "id": 727859,
    "name": "Radanovo",
    "country": "BG",
    "coord": {
      "lon": 25.633329,
      "lat": 43.349998
    }
  },
  {
    "id": 6459916,
    "name": "Khristo Danovo",
    "country": "BG",
    "coord": {
      "lon": 24.6,
      "lat": 42.73333
    }
  },
  {
    "id": 730395,
    "name": "Khristo-Danovo",
    "country": "BG",
    "coord": {
      "lon": 24.6,
      "lat": 42.73333
    }
  },
  {
    "id": 6459751,
    "name": "Profesor Ishirkovo",
    "country": "BG",
    "coord": {
      "lon": 27.16667,
      "lat": 44
    }
  },
  {
    "id": 727941,
    "name": "Profesor-Ishirkovo",
    "country": "BG",
    "coord": {
      "lon": 27.16667,
      "lat": 44
    }
  },
  {
    "id": 6461223,
    "name": "Bagrenci",
    "country": "BG",
    "coord": {
      "lon": 22.76083,
      "lat": 42.280281
    }
  },
  {
    "id": 733539,
    "name": "Bagrentsi",
    "country": "BG",
    "coord": {
      "lon": 22.76083,
      "lat": 42.280281
    }
  },
  {
    "id": 6460601,
    "name": "Trapoklovo",
    "country": "BG",
    "coord": {
      "lon": 26.6,
      "lat": 42.650002
    }
  },
  {
    "id": 726359,
    "name": "Trapoklovo",
    "country": "BG",
    "coord": {
      "lon": 26.6,
      "lat": 42.650002
    }
  },
  {
    "id": 729039,
    "name": "Obshtina Miziya",
    "country": "BG",
    "coord": {
      "lon": 23.85,
      "lat": 43.633331
    }
  },
  {
    "id": 6461578,
    "name": "Krushovica",
    "country": "BG",
    "coord": {
      "lon": 23.85,
      "lat": 43.616669
    }
  },
  {
    "id": 729857,
    "name": "Krushovitsa",
    "country": "BG",
    "coord": {
      "lon": 23.85,
      "lat": 43.616669
    }
  },
  {
    "id": 6460065,
    "name": "Varvara",
    "country": "BG",
    "coord": {
      "lon": 27.91667,
      "lat": 42.116669
    }
  },
  {
    "id": 726041,
    "name": "Varvara",
    "country": "BG",
    "coord": {
      "lon": 27.91667,
      "lat": 42.116669
    }
  },
  {
    "id": 729530,
    "name": "Loznitsa",
    "country": "BG",
    "coord": {
      "lon": 26.6,
      "lat": 43.366669
    }
  },
  {
    "id": 6460750,
    "name": "Kaspichan",
    "country": "BG",
    "coord": {
      "lon": 27.16667,
      "lat": 43.316669
    }
  },
  {
    "id": 730542,
    "name": "Kaspichan",
    "country": "BG",
    "coord": {
      "lon": 27.16667,
      "lat": 43.316669
    }
  },
  {
    "id": 6459611,
    "name": "Kurnalovo",
    "country": "BG",
    "coord": {
      "lon": 23.216669,
      "lat": 41.466671
    }
  },
  {
    "id": 729785,
    "name": "Krnalovo",
    "country": "BG",
    "coord": {
      "lon": 23.216669,
      "lat": 41.466671
    }
  },
  {
    "id": 6461658,
    "name": "Govedarci",
    "country": "BG",
    "coord": {
      "lon": 23.48333,
      "lat": 42.25
    }
  },
  {
    "id": 731103,
    "name": "Govedartsi",
    "country": "BG",
    "coord": {
      "lon": 23.48333,
      "lat": 42.25
    }
  },
  {
    "id": 6460389,
    "name": "Bogomilovo",
    "country": "BG",
    "coord": {
      "lon": 25.549999,
      "lat": 42.383331
    }
  },
  {
    "id": 733115,
    "name": "Bogomilovo",
    "country": "BG",
    "coord": {
      "lon": 25.549999,
      "lat": 42.383331
    }
  },
  {
    "id": 728704,
    "name": "Obshtina Novo Selo",
    "country": "BG",
    "coord": {
      "lon": 22.83333,
      "lat": 44.116669
    }
  },
  {
    "id": 728709,
    "name": "Novo Selo",
    "country": "BG",
    "coord": {
      "lon": 22.786671,
      "lat": 44.158611
    }
  },
  {
    "id": 732252,
    "name": "Obshtina Dimovo",
    "country": "BG",
    "coord": {
      "lon": 22.816669,
      "lat": 43.75
    }
  },
  {
    "id": 732253,
    "name": "Dimovo",
    "country": "BG",
    "coord": {
      "lon": 22.72694,
      "lat": 43.741669
    }
  },
  {
    "id": 728084,
    "name": "Popkralevo",
    "country": "BG",
    "coord": {
      "lon": 27.383329,
      "lat": 43.98333
    }
  },
  {
    "id": 733368,
    "name": "Belashtitsa",
    "country": "BG",
    "coord": {
      "lon": 24.73333,
      "lat": 42.066669
    }
  },
  {
    "id": 6460854,
    "name": "Bjala cherkva",
    "country": "BG",
    "coord": {
      "lon": 25.299999,
      "lat": 43.200001
    }
  },
  {
    "id": 732717,
    "name": "Byala Cherkva",
    "country": "BG",
    "coord": {
      "lon": 25.299999,
      "lat": 43.200001
    }
  },
  {
    "id": 6461167,
    "name": "Malo Konare",
    "country": "BG",
    "coord": {
      "lon": 24.433331,
      "lat": 42.200001
    }
  },
  {
    "id": 729316,
    "name": "Malo Konare",
    "country": "BG",
    "coord": {
      "lon": 24.433331,
      "lat": 42.200001
    }
  },
  {
    "id": 6459176,
    "name": "Divotino",
    "country": "BG",
    "coord": {
      "lon": 23.049999,
      "lat": 42.666672
    }
  },
  {
    "id": 732233,
    "name": "Divotino",
    "country": "BG",
    "coord": {
      "lon": 23.049999,
      "lat": 42.666672
    }
  },
  {
    "id": 6459385,
    "name": "Toros",
    "country": "BG",
    "coord": {
      "lon": 24.283331,
      "lat": 43.099998
    }
  },
  {
    "id": 729704,
    "name": "Toros",
    "country": "BG",
    "coord": {
      "lon": 24.283331,
      "lat": 43.099998
    }
  },
  {
    "id": 732099,
    "name": "Dolni Dubnik",
    "country": "BG",
    "coord": {
      "lon": 24.433331,
      "lat": 43.400002
    }
  },
  {
    "id": 6461531,
    "name": "Zgorigrad",
    "country": "BG",
    "coord": {
      "lon": 23.51667,
      "lat": 43.183331
    }
  },
  {
    "id": 725394,
    "name": "Zgorigrad",
    "country": "BG",
    "coord": {
      "lon": 23.51667,
      "lat": 43.183331
    }
  },
  {
    "id": 728927,
    "name": "Obshtina Mŭglizh",
    "country": "BG",
    "coord": {
      "lon": 25.616671,
      "lat": 42.633331
    }
  },
  {
    "id": 6460355,
    "name": "Tulovo",
    "country": "BG",
    "coord": {
      "lon": 25.549999,
      "lat": 42.583328
    }
  },
  {
    "id": 726189,
    "name": "Tulovo",
    "country": "BG",
    "coord": {
      "lon": 25.549999,
      "lat": 42.583328
    }
  },
  {
    "id": 864574,
    "name": "Obshtina Chelopech",
    "country": "BG",
    "coord": {
      "lon": 24.066669,
      "lat": 42.716671
    }
  },
  {
    "id": 732636,
    "name": "Chelopech",
    "country": "BG",
    "coord": {
      "lon": 24.08333,
      "lat": 42.700001
    }
  },
  {
    "id": 6460822,
    "name": "Pchelishhe",
    "country": "BG",
    "coord": {
      "lon": 25.716669,
      "lat": 43.033329
    }
  },
  {
    "id": 728361,
    "name": "Pchelishte",
    "country": "BG",
    "coord": {
      "lon": 25.716669,
      "lat": 43.033329
    }
  },
  {
    "id": 6461627,
    "name": "Novi khan",
    "country": "BG",
    "coord": {
      "lon": 23.6,
      "lat": 42.599998
    }
  },
  {
    "id": 728736,
    "name": "Novi Khan",
    "country": "BG",
    "coord": {
      "lon": 23.6,
      "lat": 42.599998
    }
  },
  {
    "id": 6459586,
    "name": "Musomishha",
    "country": "BG",
    "coord": {
      "lon": 23.75,
      "lat": 41.549999
    }
  },
  {
    "id": 728895,
    "name": "Musomishta",
    "country": "BG",
    "coord": {
      "lon": 23.75,
      "lat": 41.549999
    }
  },
  {
    "id": 731238,
    "name": "Obshtina Gorna Malina",
    "country": "BG",
    "coord": {
      "lon": 23.799999,
      "lat": 42.716671
    }
  },
  {
    "id": 731239,
    "name": "Gorna Malina",
    "country": "BG",
    "coord": {
      "lon": 23.700001,
      "lat": 42.683331
    }
  },
  {
    "id": 733513,
    "name": "Obshtina Balchik",
    "country": "BG",
    "coord": {
      "lon": 28.133329,
      "lat": 43.5
    }
  },
  {
    "id": 6460435,
    "name": "Obrochishhe",
    "country": "BG",
    "coord": {
      "lon": 28.049999,
      "lat": 43.400002
    }
  },
  {
    "id": 728676,
    "name": "Obrochishte",
    "country": "BG",
    "coord": {
      "lon": 28.049999,
      "lat": 43.400002
    }
  },
  {
    "id": 6459654,
    "name": "Vaklinovo",
    "country": "BG",
    "coord": {
      "lon": 24.066669,
      "lat": 41.599998
    }
  },
  {
    "id": 726066,
    "name": "Vaklinovo",
    "country": "BG",
    "coord": {
      "lon": 24.066669,
      "lat": 41.599998
    }
  },
  {
    "id": 6461565,
    "name": "Zverino",
    "country": "BG",
    "coord": {
      "lon": 23.549999,
      "lat": 43.083328
    }
  },
  {
    "id": 725230,
    "name": "Zverino",
    "country": "BG",
    "coord": {
      "lon": 23.549999,
      "lat": 43.083328
    }
  },
  {
    "id": 6460184,
    "name": "Pirgovo",
    "country": "BG",
    "coord": {
      "lon": 25.866671,
      "lat": 43.73333
    }
  },
  {
    "id": 728250,
    "name": "Pirgovo",
    "country": "BG",
    "coord": {
      "lon": 25.866671,
      "lat": 43.73333
    }
  },
  {
    "id": 6460197,
    "name": "Sandrovo",
    "country": "BG",
    "coord": {
      "lon": 26.116671,
      "lat": 43.933331
    }
  },
  {
    "id": 727445,
    "name": "Sandrovo",
    "country": "BG",
    "coord": {
      "lon": 26.116671,
      "lat": 43.933331
    }
  },
  {
    "id": 6459275,
    "name": "Brestovene",
    "country": "BG",
    "coord": {
      "lon": 26.58333,
      "lat": 43.76667
    }
  },
  {
    "id": 732900,
    "name": "Brestovene",
    "country": "BG",
    "coord": {
      "lon": 26.58333,
      "lat": 43.76667
    }
  },
  {
    "id": 6460191,
    "name": "Nikolovo",
    "country": "BG",
    "coord": {
      "lon": 26.1,
      "lat": 43.849998
    }
  },
  {
    "id": 728784,
    "name": "Nikolovo",
    "country": "BG",
    "coord": {
      "lon": 26.1,
      "lat": 43.849998
    }
  },
  {
    "id": 727735,
    "name": "Ravno",
    "country": "BG",
    "coord": {
      "lon": 26.450001,
      "lat": 43.700001
    }
  },
  {
    "id": 731415,
    "name": "Glavinitsa",
    "country": "BG",
    "coord": {
      "lon": 26.83333,
      "lat": 43.916672
    }
  },
  {
    "id": 733066,
    "name": "Obshtina Borino",
    "country": "BG",
    "coord": {
      "lon": 24.299999,
      "lat": 41.650002
    }
  },
  {
    "id": 733067,
    "name": "Borino",
    "country": "BG",
    "coord": {
      "lon": 24.283331,
      "lat": 41.683331
    }
  },
  {
    "id": 6461195,
    "name": "Kostandovo",
    "country": "BG",
    "coord": {
      "lon": 24.116671,
      "lat": 42.01667
    }
  },
  {
    "id": 730103,
    "name": "Kostandovo",
    "country": "BG",
    "coord": {
      "lon": 24.116671,
      "lat": 42.01667
    }
  },
  {
    "id": 725513,
    "name": "Yoakim-Gruevo",
    "country": "BG",
    "coord": {
      "lon": 24.566669,
      "lat": 42.116669
    }
  },
  {
    "id": 6461285,
    "name": "Dolen",
    "country": "BG",
    "coord": {
      "lon": 25.133329,
      "lat": 41.416672
    }
  },
  {
    "id": 732164,
    "name": "Dolen",
    "country": "BG",
    "coord": {
      "lon": 25.133329,
      "lat": 41.416672
    }
  },
  {
    "id": 729824,
    "name": "Obshtina Kula",
    "country": "BG",
    "coord": {
      "lon": 22.566669,
      "lat": 43.900002
    }
  },
  {
    "id": 729825,
    "name": "Kula",
    "country": "BG",
    "coord": {
      "lon": 22.521391,
      "lat": 43.887779
    }
  },
  {
    "id": 6461177,
    "name": "Sinitovo",
    "country": "BG",
    "coord": {
      "lon": 24.366671,
      "lat": 42.150002
    }
  },
  {
    "id": 727195,
    "name": "Sinitovo",
    "country": "BG",
    "coord": {
      "lon": 24.366671,
      "lat": 42.150002
    }
  },
  {
    "id": 6459651,
    "name": "Struma",
    "country": "BG",
    "coord": {
      "lon": 23.23333,
      "lat": 41.549999
    }
  },
  {
    "id": 726702,
    "name": "Struma",
    "country": "BG",
    "coord": {
      "lon": 23.23333,
      "lat": 41.549999
    }
  },
  {
    "id": 6461379,
    "name": "Malomir",
    "country": "BG",
    "coord": {
      "lon": 26.51667,
      "lat": 42.283329
    }
  },
  {
    "id": 729313,
    "name": "Malomir",
    "country": "BG",
    "coord": {
      "lon": 26.51667,
      "lat": 42.283329
    }
  },
  {
    "id": 729666,
    "name": "Obshtina Lesichevo",
    "country": "BG",
    "coord": {
      "lon": 24.15,
      "lat": 42.366669
    }
  },
  {
    "id": 729667,
    "name": "Lesichevo",
    "country": "BG",
    "coord": {
      "lon": 24.116671,
      "lat": 42.349998
    }
  },
  {
    "id": 731067,
    "name": "Gradnitsa",
    "country": "BG",
    "coord": {
      "lon": 24.966669,
      "lat": 42.950001
    }
  },
  {
    "id": 6460165,
    "name": "Sturmen",
    "country": "BG",
    "coord": {
      "lon": 25.683331,
      "lat": 43.48333
    }
  },
  {
    "id": 726670,
    "name": "Stŭrmen",
    "country": "BG",
    "coord": {
      "lon": 25.683331,
      "lat": 43.48333
    }
  },
  {
    "id": 6460821,
    "name": "Prisovo",
    "country": "BG",
    "coord": {
      "lon": 25.65,
      "lat": 43.049999
    }
  },
  {
    "id": 727951,
    "name": "Prisovo",
    "country": "BG",
    "coord": {
      "lon": 25.65,
      "lat": 43.049999
    }
  },
  {
    "id": 6460144,
    "name": "Slavjanci",
    "country": "BG",
    "coord": {
      "lon": 26.70833,
      "lat": 42.76667
    }
  },
  {
    "id": 727086,
    "name": "Slavyantsi",
    "country": "BG",
    "coord": {
      "lon": 26.73333,
      "lat": 42.76667
    }
  },
  {
    "id": 6461607,
    "name": "Trudovec",
    "country": "BG",
    "coord": {
      "lon": 23.83333,
      "lat": 42.916672
    }
  },
  {
    "id": 726309,
    "name": "Trudovets",
    "country": "BG",
    "coord": {
      "lon": 23.83333,
      "lat": 42.916672
    }
  },
  {
    "id": 6460106,
    "name": "Prosenik",
    "country": "BG",
    "coord": {
      "lon": 27.450001,
      "lat": 42.799999
    }
  },
  {
    "id": 727925,
    "name": "Prosenik",
    "country": "BG",
    "coord": {
      "lon": 27.450001,
      "lat": 42.799999
    }
  },
  {
    "id": 6460302,
    "name": "Totleben",
    "country": "BG",
    "coord": {
      "lon": 24.91667,
      "lat": 43.433331
    }
  },
  {
    "id": 726368,
    "name": "Totleben",
    "country": "BG",
    "coord": {
      "lon": 24.91667,
      "lat": 43.433331
    }
  },
  {
    "id": 6459621,
    "name": "Skrut",
    "country": "BG",
    "coord": {
      "lon": 22.997499,
      "lat": 41.361671
    }
  },
  {
    "id": 727133,
    "name": "Skrŭt",
    "country": "BG",
    "coord": {
      "lon": 22.997499,
      "lat": 41.361671
    }
  },
  {
    "id": 6461719,
    "name": "Bistrica",
    "country": "BG",
    "coord": {
      "lon": 23.366671,
      "lat": 42.583328
    }
  },
  {
    "id": 733208,
    "name": "Bistritsa",
    "country": "BG",
    "coord": {
      "lon": 23.366671,
      "lat": 42.583328
    }
  },
  {
    "id": 6461459,
    "name": "Osikovo",
    "country": "BG",
    "coord": {
      "lon": 26,
      "lat": 43.383331
    }
  },
  {
    "id": 728540,
    "name": "Osikovo",
    "country": "BG",
    "coord": {
      "lon": 26,
      "lat": 43.383331
    }
  },
  {
    "id": 6459606,
    "name": "Kavrakirovo",
    "country": "BG",
    "coord": {
      "lon": 23.16667,
      "lat": 41.433331
    }
  },
  {
    "id": 730512,
    "name": "Kavrakirovo",
    "country": "BG",
    "coord": {
      "lon": 23.16667,
      "lat": 41.433331
    }
  },
  {
    "id": 6460009,
    "name": "Karageorgievo",
    "country": "BG",
    "coord": {
      "lon": 27.183331,
      "lat": 42.73333
    }
  },
  {
    "id": 730618,
    "name": "Karageorgievo",
    "country": "BG",
    "coord": {
      "lon": 27.183331,
      "lat": 42.73333
    }
  },
  {
    "id": 6461082,
    "name": "Gruevo",
    "country": "BG",
    "coord": {
      "lon": 25.43889,
      "lat": 41.557991
    }
  },
  {
    "id": 731013,
    "name": "Gruevo",
    "country": "BG",
    "coord": {
      "lon": 25.41667,
      "lat": 41.566669
    }
  },
  {
    "id": 728850,
    "name": "Obshtina Nedelino",
    "country": "BG",
    "coord": {
      "lon": 25.1,
      "lat": 41.48333
    }
  },
  {
    "id": 728851,
    "name": "Nedelino",
    "country": "BG",
    "coord": {
      "lon": 25.08333,
      "lat": 41.450001
    }
  },
  {
    "id": 6461327,
    "name": "Turun",
    "country": "BG",
    "coord": {
      "lon": 24.883329,
      "lat": 41.549999
    }
  },
  {
    "id": 726144,
    "name": "Tŭrŭn",
    "country": "BG",
    "coord": {
      "lon": 24.883329,
      "lat": 41.549999
    }
  },
  {
    "id": 732369,
    "name": "Daveri",
    "country": "BG",
    "coord": {
      "lon": 26,
      "lat": 42.933331
    }
  },
  {
    "id": 729248,
    "name": "Marchevo",
    "country": "BG",
    "coord": {
      "lon": 23.799999,
      "lat": 41.599998
    }
  },
  {
    "id": 725461,
    "name": "Zagrade",
    "country": "BG",
    "coord": {
      "lon": 23.799999,
      "lat": 41.599998
    }
  },
  {
    "id": 6459965,
    "name": "Zlatitrap",
    "country": "BG",
    "coord": {
      "lon": 24.633329,
      "lat": 42.116669
    }
  },
  {
    "id": 725284,
    "name": "Zlatitrap",
    "country": "BG",
    "coord": {
      "lon": 24.633329,
      "lat": 42.116669
    }
  },
  {
    "id": 6460372,
    "name": "Osetenovo",
    "country": "BG",
    "coord": {
      "lon": 25.033331,
      "lat": 42.599998
    }
  },
  {
    "id": 728548,
    "name": "Osetenovo",
    "country": "BG",
    "coord": {
      "lon": 25.033331,
      "lat": 42.599998
    }
  },
  {
    "id": 6459565,
    "name": "Kraishhe",
    "country": "BG",
    "coord": {
      "lon": 23.58333,
      "lat": 41.916672
    }
  },
  {
    "id": 729994,
    "name": "Kraishte",
    "country": "BG",
    "coord": {
      "lon": 23.58333,
      "lat": 41.916672
    }
  },
  {
    "id": 731740,
    "name": "Obshtina Dzhebel",
    "country": "BG",
    "coord": {
      "lon": 25.26667,
      "lat": 41.5
    }
  },
  {
    "id": 6460935,
    "name": "Mishevsko",
    "country": "BG",
    "coord": {
      "lon": 25.25,
      "lat": 41.527779
    }
  },
  {
    "id": 727187,
    "name": "Sipets",
    "country": "BG",
    "coord": {
      "lon": 25.25,
      "lat": 41.51667
    }
  },
  {
    "id": 6459873,
    "name": "Cherven",
    "country": "BG",
    "coord": {
      "lon": 24.950001,
      "lat": 41.950001
    }
  },
  {
    "id": 732501,
    "name": "Cherven",
    "country": "BG",
    "coord": {
      "lon": 24.950001,
      "lat": 41.950001
    }
  },
  {
    "id": 6459302,
    "name": "Belovec",
    "country": "BG",
    "coord": {
      "lon": 26.383329,
      "lat": 43.816669
    }
  },
  {
    "id": 733289,
    "name": "Belovets",
    "country": "BG",
    "coord": {
      "lon": 26.383329,
      "lat": 43.816669
    }
  },
  {
    "id": 6461197,
    "name": "Varvara",
    "country": "BG",
    "coord": {
      "lon": 24.133329,
      "lat": 42.150002
    }
  },
  {
    "id": 726040,
    "name": "Varvara",
    "country": "BG",
    "coord": {
      "lon": 24.133329,
      "lat": 42.150002
    }
  },
  {
    "id": 6461188,
    "name": "Oborishhe",
    "country": "BG",
    "coord": {
      "lon": 24.08333,
      "lat": 42.51667
    }
  },
  {
    "id": 728683,
    "name": "Oborishte",
    "country": "BG",
    "coord": {
      "lon": 24.08333,
      "lat": 42.51667
    }
  },
  {
    "id": 6459967,
    "name": "Krumovo",
    "country": "BG",
    "coord": {
      "lon": 24.816669,
      "lat": 42.083328
    }
  },
  {
    "id": 729892,
    "name": "Krumovo",
    "country": "BG",
    "coord": {
      "lon": 24.816669,
      "lat": 42.083328
    }
  },
  {
    "id": 6459968,
    "name": "Markovo",
    "country": "BG",
    "coord": {
      "lon": 24.700001,
      "lat": 42.066669
    }
  },
  {
    "id": 729228,
    "name": "Markovo",
    "country": "BG",
    "coord": {
      "lon": 24.700001,
      "lat": 42.066669
    }
  },
  {
    "id": 864564,
    "name": "Obshtina Primorsko",
    "country": "BG",
    "coord": {
      "lon": 27.633329,
      "lat": 42.25
    }
  },
  {
    "id": 6460150,
    "name": "Kiten",
    "country": "BG",
    "coord": {
      "lon": 27.77397,
      "lat": 42.234951
    }
  },
  {
    "id": 730338,
    "name": "Kiten",
    "country": "BG",
    "coord": {
      "lon": 27.7749,
      "lat": 42.234241
    }
  },
  {
    "id": 6459907,
    "name": "Karavelovo",
    "country": "BG",
    "coord": {
      "lon": 24.65,
      "lat": 42.616669
    }
  },
  {
    "id": 730577,
    "name": "Karavelovo",
    "country": "BG",
    "coord": {
      "lon": 24.65,
      "lat": 42.616669
    }
  },
  {
    "id": 6461205,
    "name": "Semchinovo",
    "country": "BG",
    "coord": {
      "lon": 24.1,
      "lat": 42.183331
    }
  },
  {
    "id": 727371,
    "name": "Semchinovo",
    "country": "BG",
    "coord": {
      "lon": 24.1,
      "lat": 42.183331
    }
  },
  {
    "id": 729086,
    "name": "Milevo",
    "country": "BG",
    "coord": {
      "lon": 25.75,
      "lat": 42.583328
    }
  },
  {
    "id": 6460134,
    "name": "Chernomorec",
    "country": "BG",
    "coord": {
      "lon": 27.65,
      "lat": 42.450001
    }
  },
  {
    "id": 732519,
    "name": "Chernomorets",
    "country": "BG",
    "coord": {
      "lon": 27.63834,
      "lat": 42.445889
    }
  },
  {
    "id": 6461198,
    "name": "Vetren",
    "country": "BG",
    "coord": {
      "lon": 24.049999,
      "lat": 42.26667
    }
  },
  {
    "id": 725930,
    "name": "Vetren",
    "country": "BG",
    "coord": {
      "lon": 24.049999,
      "lat": 42.26667
    }
  },
  {
    "id": 6459590,
    "name": "Dubnica",
    "country": "BG",
    "coord": {
      "lon": 23.83333,
      "lat": 41.566669
    }
  },
  {
    "id": 731871,
    "name": "Dŭbnitsa",
    "country": "BG",
    "coord": {
      "lon": 23.83333,
      "lat": 41.566669
    }
  },
  {
    "id": 725401,
    "name": "Obshtina Zemen",
    "country": "BG",
    "coord": {
      "lon": 22.75,
      "lat": 42.549999
    }
  },
  {
    "id": 725402,
    "name": "Zemen",
    "country": "BG",
    "coord": {
      "lon": 22.74917,
      "lat": 42.478889
    }
  },
  {
    "id": 6461154,
    "name": "Aprilci",
    "country": "BG",
    "coord": {
      "lon": 24.283331,
      "lat": 42.316669
    }
  },
  {
    "id": 733650,
    "name": "Apriltsi",
    "country": "BG",
    "coord": {
      "lon": 24.283331,
      "lat": 42.316669
    }
  },
  {
    "id": 6459573,
    "name": "Padesh",
    "country": "BG",
    "coord": {
      "lon": 22.99972,
      "lat": 41.926392
    }
  },
  {
    "id": 728472,
    "name": "Padesh",
    "country": "BG",
    "coord": {
      "lon": 22.99972,
      "lat": 41.926392
    }
  },
  {
    "id": 730286,
    "name": "Obshtina Knezha",
    "country": "BG",
    "coord": {
      "lon": 24.116671,
      "lat": 43.5
    }
  },
  {
    "id": 730287,
    "name": "Knezha",
    "country": "BG",
    "coord": {
      "lon": 24.08333,
      "lat": 43.5
    }
  },
  {
    "id": 6461227,
    "name": "Granica",
    "country": "BG",
    "coord": {
      "lon": 22.74194,
      "lat": 42.253059
    }
  },
  {
    "id": 731038,
    "name": "Granitsa",
    "country": "BG",
    "coord": {
      "lon": 22.74194,
      "lat": 42.253059
    }
  },
  {
    "id": 6459885,
    "name": "Drangovo",
    "country": "BG",
    "coord": {
      "lon": 25,
      "lat": 42.366669
    }
  },
  {
    "id": 731929,
    "name": "Drangovo",
    "country": "BG",
    "coord": {
      "lon": 25,
      "lat": 42.366669
    }
  },
  {
    "id": 6460944,
    "name": "Chakalci",
    "country": "BG",
    "coord": {
      "lon": 25.316669,
      "lat": 41.5
    }
  },
  {
    "id": 728157,
    "name": "Podvrŭkh",
    "country": "BG",
    "coord": {
      "lon": 25.299999,
      "lat": 41.5
    }
  },
  {
    "id": 6460884,
    "name": "Vardim",
    "country": "BG",
    "coord": {
      "lon": 25.466669,
      "lat": 43.616669
    }
  },
  {
    "id": 726055,
    "name": "Vardim",
    "country": "BG",
    "coord": {
      "lon": 25.466669,
      "lat": 43.616669
    }
  },
  {
    "id": 729681,
    "name": "Leshko",
    "country": "BG",
    "coord": {
      "lon": 22.97361,
      "lat": 41.928329
    }
  },
  {
    "id": 732012,
    "name": "Obshtina Dospat",
    "country": "BG",
    "coord": {
      "lon": 24.16667,
      "lat": 41.650002
    }
  },
  {
    "id": 732015,
    "name": "Dospat",
    "country": "BG",
    "coord": {
      "lon": 24.16667,
      "lat": 41.650002
    }
  },
  {
    "id": 6460962,
    "name": "Kran",
    "country": "BG",
    "coord": {
      "lon": 25.48333,
      "lat": 41.333328
    }
  },
  {
    "id": 729985,
    "name": "Kran",
    "country": "BG",
    "coord": {
      "lon": 25.48333,
      "lat": 41.333328
    }
  },
  {
    "id": 728440,
    "name": "Pancharevo",
    "country": "BG",
    "coord": {
      "lon": 23.411779,
      "lat": 42.594608
    }
  },
  {
    "id": 730731,
    "name": "Obshtina Kaloyanovo",
    "country": "BG",
    "coord": {
      "lon": 24.816669,
      "lat": 42.383331
    }
  },
  {
    "id": 730733,
    "name": "Kaloyanovo",
    "country": "BG",
    "coord": {
      "lon": 24.73333,
      "lat": 42.349998
    }
  },
  {
    "id": 6460662,
    "name": "Pokrajna",
    "country": "BG",
    "coord": {
      "lon": 22.906389,
      "lat": 44.029171
    }
  },
  {
    "id": 728152,
    "name": "Pokrayna",
    "country": "BG",
    "coord": {
      "lon": 22.906389,
      "lat": 44.029171
    }
  },
  {
    "id": 732490,
    "name": "Obshtina Cherven Bryag",
    "country": "BG",
    "coord": {
      "lon": 24.133329,
      "lat": 43.333328
    }
  },
  {
    "id": 6460307,
    "name": "Kojnare",
    "country": "BG",
    "coord": {
      "lon": 24.133329,
      "lat": 43.349998
    }
  },
  {
    "id": 730040,
    "name": "Koynare",
    "country": "BG",
    "coord": {
      "lon": 24.133329,
      "lat": 43.349998
    }
  },
  {
    "id": 6459895,
    "name": "Ivan Vazovo",
    "country": "BG",
    "coord": {
      "lon": 24.783331,
      "lat": 42.466671
    }
  },
  {
    "id": 730840,
    "name": "Ivan-Vazovo",
    "country": "BG",
    "coord": {
      "lon": 24.783331,
      "lat": 42.466671
    }
  },
  {
    "id": 726327,
    "name": "Trite Kŭshti",
    "country": "BG",
    "coord": {
      "lon": 23.866671,
      "lat": 42.299999
    }
  },
  {
    "id": 6461287,
    "name": "Starcevo",
    "country": "BG",
    "coord": {
      "lon": 25.066669,
      "lat": 41.416672
    }
  },
  {
    "id": 726816,
    "name": "Startsevo",
    "country": "BG",
    "coord": {
      "lon": 25.066669,
      "lat": 41.416672
    }
  },
  {
    "id": 6461277,
    "name": "Barutin",
    "country": "BG",
    "coord": {
      "lon": 24.183331,
      "lat": 41.599998
    }
  },
  {
    "id": 733443,
    "name": "Barutin",
    "country": "BG",
    "coord": {
      "lon": 24.183331,
      "lat": 41.599998
    }
  },
  {
    "id": 6461153,
    "name": "Aleko Konstantinovo",
    "country": "BG",
    "coord": {
      "lon": 24.283331,
      "lat": 42.150002
    }
  },
  {
    "id": 733700,
    "name": "Aleko-Konstantinovo",
    "country": "BG",
    "coord": {
      "lon": 24.283331,
      "lat": 42.150002
    }
  },
  {
    "id": 6459416,
    "name": "Kirchevo",
    "country": "BG",
    "coord": {
      "lon": 24.366671,
      "lat": 42.98333
    }
  },
  {
    "id": 730361,
    "name": "Kirchevo",
    "country": "BG",
    "coord": {
      "lon": 24.366671,
      "lat": 42.98333
    }
  },
  {
    "id": 6460815,
    "name": "Ledenik",
    "country": "BG",
    "coord": {
      "lon": 25.549999,
      "lat": 43.083328
    }
  },
  {
    "id": 729698,
    "name": "Ledenik",
    "country": "BG",
    "coord": {
      "lon": 25.549999,
      "lat": 43.083328
    }
  },
  {
    "id": 6460520,
    "name": "Kochmar",
    "country": "BG",
    "coord": {
      "lon": 27.466669,
      "lat": 43.683331
    }
  },
  {
    "id": 730264,
    "name": "Kochmar",
    "country": "BG",
    "coord": {
      "lon": 27.466669,
      "lat": 43.683331
    }
  },
  {
    "id": 731978,
    "name": "Dragichevo",
    "country": "BG",
    "coord": {
      "lon": 23.183331,
      "lat": 42.616669
    }
  },
  {
    "id": 6460130,
    "name": "Ravadinovo",
    "country": "BG",
    "coord": {
      "lon": 27.66667,
      "lat": 42.383331
    }
  },
  {
    "id": 727760,
    "name": "Ravadinovo",
    "country": "BG",
    "coord": {
      "lon": 27.66626,
      "lat": 42.385422
    }
  },
  {
    "id": 729321,
    "name": "Obshtina Malko Tŭrnovo",
    "country": "BG",
    "coord": {
      "lon": 27.533331,
      "lat": 42.083328
    }
  },
  {
    "id": 729322,
    "name": "Malko Turnovo",
    "country": "BG",
    "coord": {
      "lon": 27.533331,
      "lat": 41.98333
    }
  },
  {
    "id": 6460600,
    "name": "Topolchane",
    "country": "BG",
    "coord": {
      "lon": 26.433331,
      "lat": 42.650002
    }
  },
  {
    "id": 726399,
    "name": "Topolchane",
    "country": "BG",
    "coord": {
      "lon": 26.433331,
      "lat": 42.650002
    }
  },
  {
    "id": 6459910,
    "name": "Kurnare",
    "country": "BG",
    "coord": {
      "lon": 24.633329,
      "lat": 42.700001
    }
  },
  {
    "id": 729784,
    "name": "Kŭrnare",
    "country": "BG",
    "coord": {
      "lon": 24.633329,
      "lat": 42.700001
    }
  },
  {
    "id": 729035,
    "name": "Mladen",
    "country": "BG",
    "coord": {
      "lon": 25.183331,
      "lat": 43.083328
    }
  },
  {
    "id": 6461064,
    "name": "Skalna glava",
    "country": "BG",
    "coord": {
      "lon": 25.320829,
      "lat": 41.700001
    }
  },
  {
    "id": 733540,
    "name": "Bagra",
    "country": "BG",
    "coord": {
      "lon": 25.316669,
      "lat": 41.700001
    }
  },
  {
    "id": 6459317,
    "name": "Veselina",
    "country": "BG",
    "coord": {
      "lon": 26.683331,
      "lat": 43.450001
    }
  },
  {
    "id": 725945,
    "name": "Veselina",
    "country": "BG",
    "coord": {
      "lon": 26.683331,
      "lat": 43.450001
    }
  },
  {
    "id": 6460836,
    "name": "Polikraishhe",
    "country": "BG",
    "coord": {
      "lon": 25.616671,
      "lat": 43.183331
    }
  },
  {
    "id": 728141,
    "name": "Polikrayshte",
    "country": "BG",
    "coord": {
      "lon": 25.616671,
      "lat": 43.183331
    }
  },
  {
    "id": 6459962,
    "name": "Branipole",
    "country": "BG",
    "coord": {
      "lon": 24.75,
      "lat": 42.083328
    }
  },
  {
    "id": 732937,
    "name": "Branipole",
    "country": "BG",
    "coord": {
      "lon": 24.75,
      "lat": 42.083328
    }
  },
  {
    "id": 6459521,
    "name": "Vurbovo",
    "country": "BG",
    "coord": {
      "lon": 25.866671,
      "lat": 41.76667
    }
  },
  {
    "id": 725639,
    "name": "Vŭrbovo",
    "country": "BG",
    "coord": {
      "lon": 25.866671,
      "lat": 41.76667
    }
  },
  {
    "id": 727328,
    "name": "Obshtina Shabla",
    "country": "BG",
    "coord": {
      "lon": 28.51667,
      "lat": 43.616669
    }
  },
  {
    "id": 727329,
    "name": "Shabla",
    "country": "BG",
    "coord": {
      "lon": 28.533331,
      "lat": 43.533329
    }
  },
  {
    "id": 732984,
    "name": "Obshtina Boychinovtsi",
    "country": "BG",
    "coord": {
      "lon": 23.433331,
      "lat": 43.533329
    }
  },
  {
    "id": 6459208,
    "name": "Gromshin",
    "country": "BG",
    "coord": {
      "lon": 23.5,
      "lat": 43.51667
    }
  },
  {
    "id": 731023,
    "name": "Gromshin",
    "country": "BG",
    "coord": {
      "lon": 23.5,
      "lat": 43.51667
    }
  },
  {
    "id": 728415,
    "name": "Partizani",
    "country": "BG",
    "coord": {
      "lon": 27.25,
      "lat": 43.01667
    }
  },
  {
    "id": 727970,
    "name": "Prezhda",
    "country": "BG",
    "coord": {
      "lon": 27.25,
      "lat": 43.01667
    }
  },
  {
    "id": 6460304,
    "name": "Glava",
    "country": "BG",
    "coord": {
      "lon": 24.200001,
      "lat": 43.400002
    }
  },
  {
    "id": 731426,
    "name": "Glava",
    "country": "BG",
    "coord": {
      "lon": 24.200001,
      "lat": 43.400002
    }
  },
  {
    "id": 6461686,
    "name": "Rebrovo",
    "country": "BG",
    "coord": {
      "lon": 23.383329,
      "lat": 42.883331
    }
  },
  {
    "id": 727679,
    "name": "Rebrovo",
    "country": "BG",
    "coord": {
      "lon": 23.383329,
      "lat": 42.883331
    }
  },
  {
    "id": 6460409,
    "name": "Ploska mogila",
    "country": "BG",
    "coord": {
      "lon": 25.816669,
      "lat": 42.433331
    }
  },
  {
    "id": 728196,
    "name": "Ploska Mogila",
    "country": "BG",
    "coord": {
      "lon": 25.816669,
      "lat": 42.433331
    }
  },
  {
    "id": 729155,
    "name": "Melyane",
    "country": "BG",
    "coord": {
      "lon": 23.0175,
      "lat": 43.359718
    }
  },
  {
    "id": 6459417,
    "name": "Lesidren",
    "country": "BG",
    "coord": {
      "lon": 24.4,
      "lat": 42.966671
    }
  },
  {
    "id": 729665,
    "name": "Lesidren",
    "country": "BG",
    "coord": {
      "lon": 24.4,
      "lat": 42.966671
    }
  },
  {
    "id": 726284,
    "name": "Tsalapitsa",
    "country": "BG",
    "coord": {
      "lon": 24.566669,
      "lat": 42.183331
    }
  },
  {
    "id": 6461150,
    "name": "Pamidovo",
    "country": "BG",
    "coord": {
      "lon": 24.216669,
      "lat": 42.283329
    }
  },
  {
    "id": 728451,
    "name": "Pamidovo",
    "country": "BG",
    "coord": {
      "lon": 24.216669,
      "lat": 42.283329
    }
  },
  {
    "id": 6461148,
    "name": "Dinkata",
    "country": "BG",
    "coord": {
      "lon": 24.23333,
      "lat": 42.283329
    }
  },
  {
    "id": 732247,
    "name": "Dinkata",
    "country": "BG",
    "coord": {
      "lon": 24.23333,
      "lat": 42.283329
    }
  },
  {
    "id": 6461463,
    "name": "Svetlen",
    "country": "BG",
    "coord": {
      "lon": 26.283331,
      "lat": 43.316669
    }
  },
  {
    "id": 726561,
    "name": "Svetlen",
    "country": "BG",
    "coord": {
      "lon": 26.283331,
      "lat": 43.316669
    }
  },
  {
    "id": 6459404,
    "name": "Debnevo",
    "country": "BG",
    "coord": {
      "lon": 24.85,
      "lat": 42.950001
    }
  },
  {
    "id": 732353,
    "name": "Debnevo",
    "country": "BG",
    "coord": {
      "lon": 24.85,
      "lat": 42.950001
    }
  },
  {
    "id": 6461265,
    "name": "Jagodina",
    "country": "BG",
    "coord": {
      "lon": 24.35,
      "lat": 41.633331
    }
  },
  {
    "id": 725594,
    "name": "Yagodina",
    "country": "BG",
    "coord": {
      "lon": 24.35,
      "lat": 41.633331
    }
  },
  {
    "id": 6461356,
    "name": "Kamenec",
    "country": "BG",
    "coord": {
      "lon": 26.73333,
      "lat": 42.333328
    }
  },
  {
    "id": 730699,
    "name": "Kamenets",
    "country": "BG",
    "coord": {
      "lon": 26.73333,
      "lat": 42.333328
    }
  },
  {
    "id": 6461344,
    "name": "Lesovo",
    "country": "BG",
    "coord": {
      "lon": 26.566669,
      "lat": 41.98333
    }
  },
  {
    "id": 729650,
    "name": "Lesovo",
    "country": "BG",
    "coord": {
      "lon": 26.566669,
      "lat": 41.98333
    }
  },
  {
    "id": 864565,
    "name": "Obshtina Dobrich-Selska",
    "country": "BG",
    "coord": {
      "lon": 27.73333,
      "lat": 43.633331
    }
  },
  {
    "id": 6460471,
    "name": "Karapelit",
    "country": "BG",
    "coord": {
      "lon": 27.566669,
      "lat": 43.650002
    }
  },
  {
    "id": 730590,
    "name": "Karapelit",
    "country": "BG",
    "coord": {
      "lon": 27.566669,
      "lat": 43.650002
    }
  },
  {
    "id": 6459796,
    "name": "Topoli",
    "country": "BG",
    "coord": {
      "lon": 27.83333,
      "lat": 43.216671
    }
  },
  {
    "id": 726398,
    "name": "Topoli",
    "country": "BG",
    "coord": {
      "lon": 27.83333,
      "lat": 43.216671
    }
  },
  {
    "id": 726114,
    "name": "Ugurchin",
    "country": "BG",
    "coord": {
      "lon": 24.41667,
      "lat": 43.099998
    }
  },
  {
    "id": 6459561,
    "name": "Mesta",
    "country": "BG",
    "coord": {
      "lon": 23.683331,
      "lat": 41.75
    }
  },
  {
    "id": 729145,
    "name": "Mesta",
    "country": "BG",
    "coord": {
      "lon": 23.683331,
      "lat": 41.75
    }
  },
  {
    "id": 6460058,
    "name": "Sokolovo",
    "country": "BG",
    "coord": {
      "lon": 27.066669,
      "lat": 42.666672
    }
  },
  {
    "id": 726991,
    "name": "Sokolovo",
    "country": "BG",
    "coord": {
      "lon": 27.071899,
      "lat": 42.662151
    }
  },
  {
    "id": 727023,
    "name": "Obshtina Smyadovo",
    "country": "BG",
    "coord": {
      "lon": 27.049999,
      "lat": 43.049999
    }
  },
  {
    "id": 727025,
    "name": "Smyadovo",
    "country": "BG",
    "coord": {
      "lon": 27.01667,
      "lat": 43.066669
    }
  },
  {
    "id": 6459645,
    "name": "Novo Delchevo",
    "country": "BG",
    "coord": {
      "lon": 23.283331,
      "lat": 41.5
    }
  },
  {
    "id": 728730,
    "name": "Novo Delchevo",
    "country": "BG",
    "coord": {
      "lon": 23.283331,
      "lat": 41.5
    }
  },
  {
    "id": 6459667,
    "name": "Dolno Osenovo",
    "country": "BG",
    "coord": {
      "lon": 23.258329,
      "lat": 41.966671
    }
  },
  {
    "id": 732055,
    "name": "Dolno Osenovo",
    "country": "BG",
    "coord": {
      "lon": 23.25,
      "lat": 41.950001
    }
  },
  {
    "id": 6461145,
    "name": "Sveta Petka",
    "country": "BG",
    "coord": {
      "lon": 23.86389,
      "lat": 42.00486
    }
  },
  {
    "id": 726581,
    "name": "Sveta Petka",
    "country": "BG",
    "coord": {
      "lon": 23.866671,
      "lat": 42.033329
    }
  },
  {
    "id": 729941,
    "name": "Obshtina Kresna",
    "country": "BG",
    "coord": {
      "lon": 23.23333,
      "lat": 41.76667
    }
  },
  {
    "id": 6459599,
    "name": "Dolna Gradeshnica",
    "country": "BG",
    "coord": {
      "lon": 23.183331,
      "lat": 41.683331
    }
  },
  {
    "id": 732138,
    "name": "Dolna Gradeshnitsa",
    "country": "BG",
    "coord": {
      "lon": 23.183331,
      "lat": 41.683331
    }
  },
  {
    "id": 729661,
    "name": "Leskov Dol",
    "country": "BG",
    "coord": {
      "lon": 23.433331,
      "lat": 42.98333
    }
  },
  {
    "id": 727668,
    "name": "Redina",
    "country": "BG",
    "coord": {
      "lon": 23.433331,
      "lat": 42.966671
    }
  },
  {
    "id": 6459175,
    "name": "Golemo Buchino",
    "country": "BG",
    "coord": {
      "lon": 23.116671,
      "lat": 42.633331
    }
  },
  {
    "id": 731355,
    "name": "Golemo Buchino",
    "country": "BG",
    "coord": {
      "lon": 23.116671,
      "lat": 42.633331
    }
  },
  {
    "id": 732919,
    "name": "Obshtina Bratya Daskalovi",
    "country": "BG",
    "coord": {
      "lon": 25.216669,
      "lat": 42.299999
    }
  },
  {
    "id": 732920,
    "name": "Bratya Daskalovi",
    "country": "BG",
    "coord": {
      "lon": 25.216669,
      "lat": 42.299999
    }
  },
  {
    "id": 6461487,
    "name": "Ostrec",
    "country": "BG",
    "coord": {
      "lon": 26.73333,
      "lat": 43.26667
    }
  },
  {
    "id": 728524,
    "name": "Ostrets",
    "country": "BG",
    "coord": {
      "lon": 26.73333,
      "lat": 43.26667
    }
  },
  {
    "id": 6459193,
    "name": "Stefanovo",
    "country": "BG",
    "coord": {
      "lon": 23,
      "lat": 42.48333
    }
  },
  {
    "id": 726802,
    "name": "Stefanovo",
    "country": "BG",
    "coord": {
      "lon": 23,
      "lat": 42.48333
    }
  },
  {
    "id": 733347,
    "name": "Beli Breg",
    "country": "BG",
    "coord": {
      "lon": 23.433331,
      "lat": 43.51667
    }
  },
  {
    "id": 725644,
    "name": "Obshtina Vŭrbitsa",
    "country": "BG",
    "coord": {
      "lon": 26.75,
      "lat": 43.01667
    }
  },
  {
    "id": 725649,
    "name": "Vurbitsa",
    "country": "BG",
    "coord": {
      "lon": 26.633329,
      "lat": 43
    }
  },
  {
    "id": 6459966,
    "name": "Kadievo",
    "country": "BG",
    "coord": {
      "lon": 24.6,
      "lat": 42.133331
    }
  },
  {
    "id": 730789,
    "name": "Kadievo",
    "country": "BG",
    "coord": {
      "lon": 24.6,
      "lat": 42.133331
    }
  },
  {
    "id": 733141,
    "name": "Boeritsa",
    "country": "BG",
    "coord": {
      "lon": 23.716669,
      "lat": 42.450001
    }
  },
  {
    "id": 728016,
    "name": "Pravda",
    "country": "BG",
    "coord": {
      "lon": 25.66667,
      "lat": 43.150002
    }
  },
  {
    "id": 726485,
    "name": "Temnisko",
    "country": "BG",
    "coord": {
      "lon": 25.66667,
      "lat": 43.150002
    }
  },
  {
    "id": 6459400,
    "name": "Beli Osum",
    "country": "BG",
    "coord": {
      "lon": 24.631689,
      "lat": 42.8479
    }
  },
  {
    "id": 733330,
    "name": "Beli Osŭm",
    "country": "BG",
    "coord": {
      "lon": 24.632641,
      "lat": 42.849789
    }
  },
  {
    "id": 732358,
    "name": "Debeli Lag",
    "country": "BG",
    "coord": {
      "lon": 22.867781,
      "lat": 42.458061
    }
  },
  {
    "id": 732805,
    "name": "Blgarene",
    "country": "BG",
    "coord": {
      "lon": 24.76667,
      "lat": 43.049999
    }
  },
  {
    "id": 6460807,
    "name": "Balvan",
    "country": "BG",
    "coord": {
      "lon": 25.41667,
      "lat": 43.083328
    }
  },
  {
    "id": 733486,
    "name": "Balvan",
    "country": "BG",
    "coord": {
      "lon": 25.41667,
      "lat": 43.083328
    }
  },
  {
    "id": 6461246,
    "name": "Ovcharci",
    "country": "BG",
    "coord": {
      "lon": 23.216669,
      "lat": 42.26667
    }
  },
  {
    "id": 728487,
    "name": "Ovchartsi",
    "country": "BG",
    "coord": {
      "lon": 23.216669,
      "lat": 42.26667
    }
  },
  {
    "id": 6461620,
    "name": "Golema Rakovica",
    "country": "BG",
    "coord": {
      "lon": 23.799999,
      "lat": 42.616669
    }
  },
  {
    "id": 731364,
    "name": "Golema Rakovitsa",
    "country": "BG",
    "coord": {
      "lon": 23.799999,
      "lat": 42.616669
    }
  },
  {
    "id": 6461129,
    "name": "Sestrimo",
    "country": "BG",
    "coord": {
      "lon": 23.91667,
      "lat": 42.216671
    }
  },
  {
    "id": 727345,
    "name": "Sestrimo",
    "country": "BG",
    "coord": {
      "lon": 23.91667,
      "lat": 42.216671
    }
  },
  {
    "id": 6459170,
    "name": "Velkovci",
    "country": "BG",
    "coord": {
      "lon": 22.94278,
      "lat": 42.666111
    }
  },
  {
    "id": 725977,
    "name": "Velkovtsi",
    "country": "BG",
    "coord": {
      "lon": 22.94278,
      "lat": 42.666111
    }
  },
  {
    "id": 6461674,
    "name": "Jarlovo",
    "country": "BG",
    "coord": {
      "lon": 23.258329,
      "lat": 42.441669
    }
  },
  {
    "id": 725551,
    "name": "Yarlovo",
    "country": "BG",
    "coord": {
      "lon": 23.283331,
      "lat": 42.466671
    }
  },
  {
    "id": 6461585,
    "name": "Ostrov",
    "country": "BG",
    "coord": {
      "lon": 24.133329,
      "lat": 43.666672
    }
  },
  {
    "id": 728513,
    "name": "Ostrov",
    "country": "BG",
    "coord": {
      "lon": 24.133329,
      "lat": 43.666672
    }
  },
  {
    "id": 729670,
    "name": "Lesiche",
    "country": "BG",
    "coord": {
      "lon": 24.966669,
      "lat": 41.666672
    }
  },
  {
    "id": 6460952,
    "name": "Dzherovo",
    "country": "BG",
    "coord": {
      "lon": 25.308331,
      "lat": 41.299999
    }
  },
  {
    "id": 725584,
    "name": "Yakovitsa",
    "country": "BG",
    "coord": {
      "lon": 25.299999,
      "lat": 41.283329
    }
  },
  {
    "id": 6460597,
    "name": "Stara reka",
    "country": "BG",
    "coord": {
      "lon": 26.183331,
      "lat": 42.883331
    }
  },
  {
    "id": 726859,
    "name": "Stara Reka",
    "country": "BG",
    "coord": {
      "lon": 26.183331,
      "lat": 42.883331
    }
  },
  {
    "id": 6459858,
    "name": "Chernook",
    "country": "BG",
    "coord": {
      "lon": 27.216669,
      "lat": 43.133331
    }
  },
  {
    "id": 732515,
    "name": "Chernook",
    "country": "BG",
    "coord": {
      "lon": 27.216669,
      "lat": 43.133331
    }
  },
  {
    "id": 6461611,
    "name": "Belopopci",
    "country": "BG",
    "coord": {
      "lon": 23.76667,
      "lat": 42.666672
    }
  },
  {
    "id": 733295,
    "name": "Belopoptsi",
    "country": "BG",
    "coord": {
      "lon": 23.76667,
      "lat": 42.666672
    }
  },
  {
    "id": 733020,
    "name": "Bosnek",
    "country": "BG",
    "coord": {
      "lon": 23.183331,
      "lat": 42.48333
    }
  },
  {
    "id": 726469,
    "name": "Terziysko",
    "country": "BG",
    "coord": {
      "lon": 26.76667,
      "lat": 42.683331
    }
  },
  {
    "id": 6461172,
    "name": "Patalenica",
    "country": "BG",
    "coord": {
      "lon": 24.200001,
      "lat": 42.116669
    }
  },
  {
    "id": 728397,
    "name": "Patalenitsa",
    "country": "BG",
    "coord": {
      "lon": 24.200001,
      "lat": 42.116669
    }
  },
  {
    "id": 6460552,
    "name": "Korten",
    "country": "BG",
    "coord": {
      "lon": 26,
      "lat": 42.549999
    }
  },
  {
    "id": 730143,
    "name": "Korten",
    "country": "BG",
    "coord": {
      "lon": 26,
      "lat": 42.549999
    }
  },
  {
    "id": 6461645,
    "name": "Gradec",
    "country": "BG",
    "coord": {
      "lon": 23.225,
      "lat": 42.89167
    }
  },
  {
    "id": 726261,
    "name": "Tsarichina",
    "country": "BG",
    "coord": {
      "lon": 23.25,
      "lat": 42.900002
    }
  },
  {
    "id": 728675,
    "name": "Obruchishte",
    "country": "BG",
    "coord": {
      "lon": 25.950001,
      "lat": 42.133331
    }
  },
  {
    "id": 6460860,
    "name": "Karaisen",
    "country": "BG",
    "coord": {
      "lon": 25.35,
      "lat": 43.383331
    }
  },
  {
    "id": 730616,
    "name": "Karaisen",
    "country": "BG",
    "coord": {
      "lon": 25.35,
      "lat": 43.383331
    }
  },
  {
    "id": 6460213,
    "name": "Novgrad",
    "country": "BG",
    "coord": {
      "lon": 25.58333,
      "lat": 43.599998
    }
  },
  {
    "id": 728739,
    "name": "Novgrad",
    "country": "BG",
    "coord": {
      "lon": 25.58333,
      "lat": 43.599998
    }
  },
  {
    "id": 6461193,
    "name": "Radilovo",
    "country": "BG",
    "coord": {
      "lon": 24.299999,
      "lat": 42.083328
    }
  },
  {
    "id": 727847,
    "name": "Radilovo",
    "country": "BG",
    "coord": {
      "lon": 24.299999,
      "lat": 42.083328
    }
  },
  {
    "id": 6460538,
    "name": "Ticha",
    "country": "BG",
    "coord": {
      "lon": 26.433331,
      "lat": 42.966671
    }
  },
  {
    "id": 726461,
    "name": "Ticha",
    "country": "BG",
    "coord": {
      "lon": 26.433331,
      "lat": 42.966671
    }
  },
  {
    "id": 6460890,
    "name": "Oresh",
    "country": "BG",
    "coord": {
      "lon": 25.23333,
      "lat": 43.583328
    }
  },
  {
    "id": 728614,
    "name": "Oresh",
    "country": "BG",
    "coord": {
      "lon": 25.23333,
      "lat": 43.583328
    }
  },
  {
    "id": 6461221,
    "name": "Porominovo",
    "country": "BG",
    "coord": {
      "lon": 23.08333,
      "lat": 42.066669
    }
  },
  {
    "id": 728053,
    "name": "Porominovo",
    "country": "BG",
    "coord": {
      "lon": 23.08333,
      "lat": 42.066669
    }
  },
  {
    "id": 732972,
    "name": "Obshtina Boynitsa",
    "country": "BG",
    "coord": {
      "lon": 22.549999,
      "lat": 44
    }
  },
  {
    "id": 732973,
    "name": "Boynitsa",
    "country": "BG",
    "coord": {
      "lon": 22.53167,
      "lat": 43.955002
    }
  },
  {
    "id": 6461711,
    "name": "Podgumer",
    "country": "BG",
    "coord": {
      "lon": 23.4,
      "lat": 42.799999
    }
  },
  {
    "id": 728169,
    "name": "Podgumer",
    "country": "BG",
    "coord": {
      "lon": 23.403111,
      "lat": 42.802582
    }
  },
  {
    "id": 732861,
    "name": "Obshtina Brusartsi",
    "country": "BG",
    "coord": {
      "lon": 23.066669,
      "lat": 43.666672
    }
  },
  {
    "id": 6459222,
    "name": "Bukovec",
    "country": "BG",
    "coord": {
      "lon": 22.965691,
      "lat": 43.586391
    }
  },
  {
    "id": 732817,
    "name": "Bukovets",
    "country": "BG",
    "coord": {
      "lon": 22.970831,
      "lat": 43.597778
    }
  },
  {
    "id": 729645,
    "name": "Obshtina Letnitsa",
    "country": "BG",
    "coord": {
      "lon": 25.08333,
      "lat": 43.283329
    }
  },
  {
    "id": 6459363,
    "name": "Krushuna",
    "country": "BG",
    "coord": {
      "lon": 25.033331,
      "lat": 43.25
    }
  },
  {
    "id": 729854,
    "name": "Krushuna",
    "country": "BG",
    "coord": {
      "lon": 25.033331,
      "lat": 43.25
    }
  },
  {
    "id": 729404,
    "name": "Makotsevo",
    "country": "BG",
    "coord": {
      "lon": 23.799999,
      "lat": 42.683331
    }
  },
  {
    "id": 6461207,
    "name": "Slavovica",
    "country": "BG",
    "coord": {
      "lon": 24.033331,
      "lat": 42.316669
    }
  },
  {
    "id": 727098,
    "name": "Slavovitsa",
    "country": "BG",
    "coord": {
      "lon": 24.033331,
      "lat": 42.316669
    }
  },
  {
    "id": 731088,
    "name": "Gradevo",
    "country": "BG",
    "coord": {
      "lon": 23.200001,
      "lat": 41.916672
    }
  },
  {
    "id": 6459411,
    "name": "Dobrodan",
    "country": "BG",
    "coord": {
      "lon": 24.700001,
      "lat": 42.966671
    }
  },
  {
    "id": 732199,
    "name": "Dobrodan",
    "country": "BG",
    "coord": {
      "lon": 24.700001,
      "lat": 42.966671
    }
  },
  {
    "id": 6461461,
    "name": "Posabina",
    "country": "BG",
    "coord": {
      "lon": 26.116671,
      "lat": 43.316669
    }
  },
  {
    "id": 728044,
    "name": "Posabina",
    "country": "BG",
    "coord": {
      "lon": 26.116671,
      "lat": 43.316669
    }
  },
  {
    "id": 726548,
    "name": "Svezhen",
    "country": "BG",
    "coord": {
      "lon": 25.01667,
      "lat": 42.5
    }
  },
  {
    "id": 6461725,
    "name": "Krivina",
    "country": "BG",
    "coord": {
      "lon": 23.466669,
      "lat": 42.683331
    }
  },
  {
    "id": 729919,
    "name": "Krivina",
    "country": "BG",
    "coord": {
      "lon": 23.466669,
      "lat": 42.683331
    }
  },
  {
    "id": 6461698,
    "name": "Vladaja",
    "country": "BG",
    "coord": {
      "lon": 23.200001,
      "lat": 42.633331
    }
  },
  {
    "id": 725841,
    "name": "Vladaya",
    "country": "BG",
    "coord": {
      "lon": 23.200001,
      "lat": 42.633331
    }
  },
  {
    "id": 6460874,
    "name": "Obedinenie",
    "country": "BG",
    "coord": {
      "lon": 25.5,
      "lat": 43.349998
    }
  },
  {
    "id": 728693,
    "name": "Obedinenie",
    "country": "BG",
    "coord": {
      "lon": 25.5,
      "lat": 43.349998
    }
  },
  {
    "id": 6459392,
    "name": "Glogovo",
    "country": "BG",
    "coord": {
      "lon": 24.23333,
      "lat": 42.966671
    }
  },
  {
    "id": 731400,
    "name": "Glogovo",
    "country": "BG",
    "coord": {
      "lon": 24.23333,
      "lat": 42.966671
    }
  },
  {
    "id": 733057,
    "name": "Obshtina Borovan",
    "country": "BG",
    "coord": {
      "lon": 23.75,
      "lat": 43.433331
    }
  },
  {
    "id": 733058,
    "name": "Borovan",
    "country": "BG",
    "coord": {
      "lon": 23.75,
      "lat": 43.433331
    }
  },
  {
    "id": 6459740,
    "name": "Jarebica",
    "country": "BG",
    "coord": {
      "lon": 27,
      "lat": 43.849998
    }
  },
  {
    "id": 725554,
    "name": "Yarebitsa",
    "country": "BG",
    "coord": {
      "lon": 27,
      "lat": 43.849998
    }
  },
  {
    "id": 725587,
    "name": "Obshtina Yakimovo",
    "country": "BG",
    "coord": {
      "lon": 23.33333,
      "lat": 43.633331
    }
  },
  {
    "id": 6459272,
    "name": "Dolno Cerovene",
    "country": "BG",
    "coord": {
      "lon": 23.247219,
      "lat": 43.59333
    }
  },
  {
    "id": 732038,
    "name": "Dolno Tserovene",
    "country": "BG",
    "coord": {
      "lon": 23.247219,
      "lat": 43.59333
    }
  },
  {
    "id": 6460619,
    "name": "Agatovo",
    "country": "BG",
    "coord": {
      "lon": 25,
      "lat": 43.133331
    }
  },
  {
    "id": 733731,
    "name": "Agatovo",
    "country": "BG",
    "coord": {
      "lon": 25,
      "lat": 43.133331
    }
  },
  {
    "id": 6460178,
    "name": "Chilnov",
    "country": "BG",
    "coord": {
      "lon": 25.91667,
      "lat": 43.51667
    }
  },
  {
    "id": 732465,
    "name": "Chilnov",
    "country": "BG",
    "coord": {
      "lon": 25.91667,
      "lat": 43.51667
    }
  },
  {
    "id": 6460217,
    "name": "Dekov",
    "country": "BG",
    "coord": {
      "lon": 25.1,
      "lat": 43.599998
    }
  },
  {
    "id": 732335,
    "name": "Dekov",
    "country": "BG",
    "coord": {
      "lon": 25.1,
      "lat": 43.599998
    }
  },
  {
    "id": 6460242,
    "name": "Riben",
    "country": "BG",
    "coord": {
      "lon": 24.616671,
      "lat": 43.533329
    }
  },
  {
    "id": 727640,
    "name": "Riben",
    "country": "BG",
    "coord": {
      "lon": 24.616671,
      "lat": 43.533329
    }
  },
  {
    "id": 726885,
    "name": "Obshtina Stambolovo",
    "country": "BG",
    "coord": {
      "lon": 25.700001,
      "lat": 41.73333
    }
  },
  {
    "id": 726888,
    "name": "Stambolovo",
    "country": "BG",
    "coord": {
      "lon": 25.65,
      "lat": 41.76667
    }
  },
  {
    "id": 727551,
    "name": "Obshtina Rudozem",
    "country": "BG",
    "coord": {
      "lon": 24.83333,
      "lat": 41.450001
    }
  },
  {
    "id": 6461309,
    "name": "Plovdivci",
    "country": "BG",
    "coord": {
      "lon": 24.79167,
      "lat": 41.416672
    }
  },
  {
    "id": 728191,
    "name": "Plovdivtsi",
    "country": "BG",
    "coord": {
      "lon": 24.799999,
      "lat": 41.416672
    }
  },
  {
    "id": 6461670,
    "name": "Raduil",
    "country": "BG",
    "coord": {
      "lon": 23.683331,
      "lat": 42.283329
    }
  },
  {
    "id": 727820,
    "name": "Raduil",
    "country": "BG",
    "coord": {
      "lon": 23.683331,
      "lat": 42.283329
    }
  },
  {
    "id": 6459648,
    "name": "Ploski",
    "country": "BG",
    "coord": {
      "lon": 23.26667,
      "lat": 41.650002
    }
  },
  {
    "id": 728195,
    "name": "Ploski",
    "country": "BG",
    "coord": {
      "lon": 23.26667,
      "lat": 41.650002
    }
  },
  {
    "id": 6461050,
    "name": "Miladinovo",
    "country": "BG",
    "coord": {
      "lon": 25.616671,
      "lat": 41.711109
    }
  },
  {
    "id": 729099,
    "name": "Miladinovo",
    "country": "BG",
    "coord": {
      "lon": 25.616671,
      "lat": 41.700001
    }
  },
  {
    "id": 6460403,
    "name": "Malko Kadievo",
    "country": "BG",
    "coord": {
      "lon": 25.700001,
      "lat": 42.366669
    }
  },
  {
    "id": 729335,
    "name": "Malko Kadievo",
    "country": "BG",
    "coord": {
      "lon": 25.700001,
      "lat": 42.366669
    }
  },
  {
    "id": 6460618,
    "name": "Gostilica",
    "country": "BG",
    "coord": {
      "lon": 25.366671,
      "lat": 43.033329
    }
  },
  {
    "id": 731114,
    "name": "Gostilitsa",
    "country": "BG",
    "coord": {
      "lon": 25.366671,
      "lat": 43.033329
    }
  },
  {
    "id": 6459922,
    "name": "Benkovski",
    "country": "BG",
    "coord": {
      "lon": 24.65,
      "lat": 42.216671
    }
  },
  {
    "id": 733276,
    "name": "Benkovski",
    "country": "BG",
    "coord": {
      "lon": 24.65,
      "lat": 42.216671
    }
  },
  {
    "id": 6459918,
    "name": "Moskovec",
    "country": "BG",
    "coord": {
      "lon": 24.683331,
      "lat": 42.650002
    }
  },
  {
    "id": 728955,
    "name": "Moskovets",
    "country": "BG",
    "coord": {
      "lon": 24.683331,
      "lat": 42.650002
    }
  },
  {
    "id": 732088,
    "name": "Dolni Okol",
    "country": "BG",
    "coord": {
      "lon": 23.5,
      "lat": 42.48333
    }
  },
  {
    "id": 732133,
    "name": "Dolna Koznitsa",
    "country": "BG",
    "coord": {
      "lon": 22.911671,
      "lat": 42.268608
    }
  },
  {
    "id": 6459622,
    "name": "Starchevo",
    "country": "BG",
    "coord": {
      "lon": 23.23333,
      "lat": 41.48333
    }
  },
  {
    "id": 726845,
    "name": "Starchevo",
    "country": "BG",
    "coord": {
      "lon": 23.23333,
      "lat": 41.48333
    }
  },
  {
    "id": 731420,
    "name": "Glavatar",
    "country": "BG",
    "coord": {
      "lon": 24.866671,
      "lat": 42.333328
    }
  },
  {
    "id": 6460370,
    "name": "Dolno Sakhrane",
    "country": "BG",
    "coord": {
      "lon": 25.23333,
      "lat": 42.633331
    }
  },
  {
    "id": 732048,
    "name": "Dolno Sakhrane",
    "country": "BG",
    "coord": {
      "lon": 25.23333,
      "lat": 42.633331
    }
  },
  {
    "id": 6460039,
    "name": "Krustina",
    "country": "BG",
    "coord": {
      "lon": 27.23333,
      "lat": 42.583328
    }
  },
  {
    "id": 729845,
    "name": "Krŭstina",
    "country": "BG",
    "coord": {
      "lon": 27.23687,
      "lat": 42.585381
    }
  },
  {
    "id": 6461723,
    "name": "Kazichene",
    "country": "BG",
    "coord": {
      "lon": 23.466669,
      "lat": 42.666672
    }
  },
  {
    "id": 730489,
    "name": "Kazichene",
    "country": "BG",
    "coord": {
      "lon": 23.466669,
      "lat": 42.666672
    }
  },
  {
    "id": 6461316,
    "name": "Vievo",
    "country": "BG",
    "coord": {
      "lon": 24.83333,
      "lat": 41.650002
    }
  },
  {
    "id": 725895,
    "name": "Vievo",
    "country": "BG",
    "coord": {
      "lon": 24.83333,
      "lat": 41.650002
    }
  },
  {
    "id": 6459872,
    "name": "Topolovo",
    "country": "BG",
    "coord": {
      "lon": 25,
      "lat": 41.900002
    }
  },
  {
    "id": 726381,
    "name": "Topolovo",
    "country": "BG",
    "coord": {
      "lon": 25,
      "lat": 41.900002
    }
  },
  {
    "id": 6461609,
    "name": "Aprilovo",
    "country": "BG",
    "coord": {
      "lon": 23.683331,
      "lat": 42.666672
    }
  },
  {
    "id": 733653,
    "name": "Aprilovo",
    "country": "BG",
    "coord": {
      "lon": 23.683331,
      "lat": 42.666672
    }
  },
  {
    "id": 6460853,
    "name": "Butovo",
    "country": "BG",
    "coord": {
      "lon": 25.23333,
      "lat": 43.299999
    }
  },
  {
    "id": 732742,
    "name": "Butovo",
    "country": "BG",
    "coord": {
      "lon": 25.23333,
      "lat": 43.299999
    }
  },
  {
    "id": 6459620,
    "name": "Samuilovo",
    "country": "BG",
    "coord": {
      "lon": 23.08333,
      "lat": 41.366669
    }
  },
  {
    "id": 727452,
    "name": "Samuilovo",
    "country": "BG",
    "coord": {
      "lon": 23.08333,
      "lat": 41.366669
    }
  },
  {
    "id": 727423,
    "name": "Satovcha",
    "country": "BG",
    "coord": {
      "lon": 23.98333,
      "lat": 41.616669
    }
  },
  {
    "id": 6459638,
    "name": "Katunci",
    "country": "BG",
    "coord": {
      "lon": 23.433331,
      "lat": 41.450001
    }
  },
  {
    "id": 730522,
    "name": "Katuntsi",
    "country": "BG",
    "coord": {
      "lon": 23.433331,
      "lat": 41.450001
    }
  },
  {
    "id": 6459283,
    "name": "Vazovo",
    "country": "BG",
    "coord": {
      "lon": 26.816669,
      "lat": 43.76667
    }
  },
  {
    "id": 726019,
    "name": "Vazovo",
    "country": "BG",
    "coord": {
      "lon": 26.816669,
      "lat": 43.76667
    }
  },
  {
    "id": 6461219,
    "name": "Barakovo",
    "country": "BG",
    "coord": {
      "lon": 23.066669,
      "lat": 42.066669
    }
  },
  {
    "id": 733447,
    "name": "Barakovo",
    "country": "BG",
    "coord": {
      "lon": 23.066669,
      "lat": 42.066669
    }
  },
  {
    "id": 6460529,
    "name": "Mokren",
    "country": "BG",
    "coord": {
      "lon": 26.633329,
      "lat": 42.75
    }
  },
  {
    "id": 733594,
    "name": "Mokren",
    "country": "BG",
    "coord": {
      "lon": 26.633329,
      "lat": 42.75
    }
  },
  {
    "id": 730497,
    "name": "Kazanka",
    "country": "BG",
    "coord": {
      "lon": 25.41667,
      "lat": 42.466671
    }
  },
  {
    "id": 727059,
    "name": "Slokoshtitsa",
    "country": "BG",
    "coord": {
      "lon": 22.7075,
      "lat": 42.266392
    }
  },
  {
    "id": 6461202,
    "name": "Karabunar",
    "country": "BG",
    "coord": {
      "lon": 24.16667,
      "lat": 42.26667
    }
  },
  {
    "id": 730627,
    "name": "Karabunar",
    "country": "BG",
    "coord": {
      "lon": 24.16667,
      "lat": 42.26667
    }
  },
  {
    "id": 6460055,
    "name": "Krumovo gradishhe",
    "country": "BG",
    "coord": {
      "lon": 26.933331,
      "lat": 42.616669
    }
  },
  {
    "id": 729889,
    "name": "Krumovo Gradishte",
    "country": "BG",
    "coord": {
      "lon": 26.933331,
      "lat": 42.616669
    }
  },
  {
    "id": 729206,
    "name": "Matsa",
    "country": "BG",
    "coord": {
      "lon": 26.16667,
      "lat": 42.216671
    }
  },
  {
    "id": 6459271,
    "name": "Gorna Luka",
    "country": "BG",
    "coord": {
      "lon": 22.897779,
      "lat": 43.450001
    }
  },
  {
    "id": 731241,
    "name": "Gorna Luka",
    "country": "BG",
    "coord": {
      "lon": 22.897779,
      "lat": 43.450001
    }
  },
  {
    "id": 729979,
    "name": "Krapets",
    "country": "BG",
    "coord": {
      "lon": 23.65,
      "lat": 43.183331
    }
  },
  {
    "id": 6461685,
    "name": "Osenovlag",
    "country": "BG",
    "coord": {
      "lon": 23.533331,
      "lat": 42.966671
    }
  },
  {
    "id": 728553,
    "name": "Osenovlag",
    "country": "BG",
    "coord": {
      "lon": 23.533331,
      "lat": 42.966671
    }
  },
  {
    "id": 728032,
    "name": "Potop",
    "country": "BG",
    "coord": {
      "lon": 23.66667,
      "lat": 42.75
    }
  },
  {
    "id": 6460094,
    "name": "Dobromir",
    "country": "BG",
    "coord": {
      "lon": 27.299999,
      "lat": 42.950001
    }
  },
  {
    "id": 732196,
    "name": "Dobromir",
    "country": "BG",
    "coord": {
      "lon": 27.299999,
      "lat": 42.950001
    }
  },
  {
    "id": 6459401,
    "name": "Borima",
    "country": "BG",
    "coord": {
      "lon": 24.566669,
      "lat": 42.966671
    }
  },
  {
    "id": 733069,
    "name": "Borima",
    "country": "BG",
    "coord": {
      "lon": 24.566669,
      "lat": 42.966671
    }
  },
  {
    "id": 6460096,
    "name": "Duskotna",
    "country": "BG",
    "coord": {
      "lon": 27.200001,
      "lat": 42.883331
    }
  },
  {
    "id": 731779,
    "name": "Dŭskotna",
    "country": "BG",
    "coord": {
      "lon": 27.200001,
      "lat": 42.883331
    }
  },
  {
    "id": 6461247,
    "name": "Resilovo",
    "country": "BG",
    "coord": {
      "lon": 23.200001,
      "lat": 42.26667
    }
  },
  {
    "id": 727656,
    "name": "Resilovo",
    "country": "BG",
    "coord": {
      "lon": 23.200001,
      "lat": 42.26667
    }
  },
  {
    "id": 6459335,
    "name": "Djankovo",
    "country": "BG",
    "coord": {
      "lon": 26.6,
      "lat": 43.616669
    }
  },
  {
    "id": 731757,
    "name": "Dyankovo",
    "country": "BG",
    "coord": {
      "lon": 26.6,
      "lat": 43.616669
    }
  },
  {
    "id": 732862,
    "name": "Brusartsi",
    "country": "BG",
    "coord": {
      "lon": 23.066669,
      "lat": 43.666672
    }
  },
  {
    "id": 6460680,
    "name": "Vinarovo",
    "country": "BG",
    "coord": {
      "lon": 22.816111,
      "lat": 44.095829
    }
  },
  {
    "id": 725890,
    "name": "Vinarovo",
    "country": "BG",
    "coord": {
      "lon": 22.816111,
      "lat": 44.095829
    }
  },
  {
    "id": 6461128,
    "name": "Momina klisura",
    "country": "BG",
    "coord": {
      "lon": 23.966669,
      "lat": 42.216671
    }
  },