[
  {
    "id": 6553549,
    "name": "Tiefenthal",
    "country": "DE",
    "coord": {
      "lon": 7.9,
      "lat": 49.75
    }
  },
  {
    "id": 2822320,
    "name": "Tiefenthal",
    "country": "DE",
    "coord": {
      "lon": 7.9,
      "lat": 49.75
    }
  },
  {
    "id": 6554922,
    "name": "Tiefenthal",
    "country": "DE",
    "coord": {
      "lon": 8.10389,
      "lat": 49.538601
    }
  },
  {
    "id": 2822323,
    "name": "Tiefenthal",
    "country": "DE",
    "coord": {
      "lon": 8.10389,
      "lat": 49.538609
    }
  },
  {
    "id": 6553973,
    "name": "Tiefenbach",
    "country": "DE",
    "coord": {
      "lon": 7.55,
      "lat": 49.950001
    }
  },
  {
    "id": 2822432,
    "name": "Tiefenbach",
    "country": "DE",
    "coord": {
      "lon": 7.55,
      "lat": 49.950001
    }
  },
  {
    "id": 6551289,
    "name": "Tiefenbach",
    "country": "DE",
    "coord": {
      "lon": 12.5833,
      "lat": 49.4333
    }
  },
  {
    "id": 2822434,
    "name": "Tiefenbach",
    "country": "DE",
    "coord": {
      "lon": 12.58333,
      "lat": 49.433331
    }
  },
  {
    "id": 2822436,
    "name": "Tiefenbach",
    "country": "DE",
    "coord": {
      "lon": 12.33333,
      "lat": 49.183331
    }
  },
  {
    "id": 6556536,
    "name": "Tiefenbach",
    "country": "DE",
    "coord": {
      "lon": 13.4,
      "lat": 48.616699
    }
  },
  {
    "id": 2822442,
    "name": "Tiefenbach",
    "country": "DE",
    "coord": {
      "lon": 13.4,
      "lat": 48.616669
    }
  },
  {
    "id": 6556514,
    "name": "Tiefenbach",
    "country": "DE",
    "coord": {
      "lon": 12.1,
      "lat": 48.5
    }
  },
  {
    "id": 2822443,
    "name": "Tiefenbach",
    "country": "DE",
    "coord": {
      "lon": 12.1,
      "lat": 48.5
    }
  },
  {
    "id": 6556030,
    "name": "Tiefenbach",
    "country": "DE",
    "coord": {
      "lon": 9.65,
      "lat": 48.083302
    }
  },
  {
    "id": 2822447,
    "name": "Tiefenbach",
    "country": "DE",
    "coord": {
      "lon": 9.65,
      "lat": 48.083328
    }
  },
  {
    "id": 2822522,
    "name": "Thurnau",
    "country": "DE",
    "coord": {
      "lon": 11.38333,
      "lat": 50.01667
    }
  },
  {
    "id": 2822531,
    "name": "Thurmannsbang",
    "country": "DE",
    "coord": {
      "lon": 13.31667,
      "lat": 48.76667
    }
  },
  {
    "id": 6547908,
    "name": "Thürkow",
    "country": "DE",
    "coord": {
      "lon": 12.5667,
      "lat": 53.833302
    }
  },
  {
    "id": 2822536,
    "name": "Thurkow",
    "country": "DE",
    "coord": {
      "lon": 12.56667,
      "lat": 53.833328
    }
  },
  {
    "id": 6549986,
    "name": "Thüringenhausen",
    "country": "DE",
    "coord": {
      "lon": 10.8,
      "lat": 51.266701
    }
  },
  {
    "id": 2822541,
    "name": "Thuringenhausen",
    "country": "DE",
    "coord": {
      "lon": 10.8,
      "lat": 51.26667
    }
  },
  {
    "id": 2822571,
    "name": "Thundorf in Unterfranken",
    "country": "DE",
    "coord": {
      "lon": 10.31667,
      "lat": 50.200001
    }
  },
  {
    "id": 2822595,
    "name": "Thum",
    "country": "DE",
    "coord": {
      "lon": 12.96667,
      "lat": 50.683331
    }
  },
  {
    "id": 6547802,
    "name": "Thulendorf",
    "country": "DE",
    "coord": {
      "lon": 12.3,
      "lat": 54.099998
    }
  },
  {
    "id": 2822599,
    "name": "Thulendorf",
    "country": "DE",
    "coord": {
      "lon": 12.3,
      "lat": 54.099998
    }
  },
  {
    "id": 6553972,
    "name": "Thörlingen",
    "country": "DE",
    "coord": {
      "lon": 7.53333,
      "lat": 50.133301
    }
  },
  {
    "id": 2822637,
    "name": "Thorlingen",
    "country": "DE",
    "coord": {
      "lon": 7.53333,
      "lat": 50.133331
    }
  },
  {
    "id": 6550558,
    "name": "Thonhausen",
    "country": "DE",
    "coord": {
      "lon": 12.3256,
      "lat": 50.833302
    }
  },
  {
    "id": 2822660,
    "name": "Thonhausen",
    "country": "DE",
    "coord": {
      "lon": 12.31667,
      "lat": 50.833328
    }
  },
  {
    "id": 6547538,
    "name": "Tholey",
    "country": "DE",
    "coord": {
      "lon": 7.03333,
      "lat": 49.483299
    }
  },
  {
    "id": 2822713,
    "name": "Tholey",
    "country": "DE",
    "coord": {
      "lon": 7.03691,
      "lat": 49.483742
    }
  },
  {
    "id": 6548437,
    "name": "Thiessow",
    "country": "DE",
    "coord": {
      "lon": 13.7167,
      "lat": 54.266701
    }
  },
  {
    "id": 2822725,
    "name": "Thiessow",
    "country": "DE",
    "coord": {
      "lon": 13.71574,
      "lat": 54.277248
    }
  },
  {
    "id": 2822737,
    "name": "Thiersheim",
    "country": "DE",
    "coord": {
      "lon": 12.13333,
      "lat": 50.083328
    }
  },
  {
    "id": 2914428,
    "name": "Grünberg",
    "country": "DE",
    "coord": {
      "lon": 14.06667,
      "lat": 51.366669
    }
  },
  {
    "id": 6548663,
    "name": "Thiendorf",
    "country": "DE",
    "coord": {
      "lon": 13.7432,
      "lat": 51.291599
    }
  },
  {
    "id": 2822786,
    "name": "Thiendorf",
    "country": "DE",
    "coord": {
      "lon": 13.74124,
      "lat": 51.293751
    }
  },
  {
    "id": 6548436,
    "name": "Thesenvitz",
    "country": "DE",
    "coord": {
      "lon": 13.3833,
      "lat": 54.450001
    }
  },
  {
    "id": 2822837,
    "name": "Thesenvitz",
    "country": "DE",
    "coord": {
      "lon": 13.38333,
      "lat": 54.450001
    }
  },
  {
    "id": 7602419,
    "name": "Thermalbad Wiesenbad",
    "country": "DE",
    "coord": {
      "lon": 13.05,
      "lat": 50.616669
    }
  },
  {
    "id": 2822840,
    "name": "Thermalbad Wiesenbad",
    "country": "DE",
    "coord": {
      "lon": 13.05,
      "lat": 50.616669
    }
  },
  {
    "id": 2822881,
    "name": "Theissen",
    "country": "DE",
    "coord": {
      "lon": 12.1,
      "lat": 51.083328
    }
  },
  {
    "id": 6556667,
    "name": "Theisseil",
    "country": "DE",
    "coord": {
      "lon": 12.2333,
      "lat": 49.700001
    }
  },
  {
    "id": 2822883,
    "name": "Theisseil",
    "country": "DE",
    "coord": {
      "lon": 12.23333,
      "lat": 49.700001
    }
  },
  {
    "id": 6556710,
    "name": "Thanstein",
    "country": "DE",
    "coord": {
      "lon": 12.46965,
      "lat": 49.379688
    }
  },
  {
    "id": 2822941,
    "name": "Thanstein",
    "country": "DE",
    "coord": {
      "lon": 12.46667,
      "lat": 49.383331
    }
  },
  {
    "id": 6549821,
    "name": "Thalwenden",
    "country": "DE",
    "coord": {
      "lon": 10.05,
      "lat": 51.349998
    }
  },
  {
    "id": 2823034,
    "name": "Thalwenden",
    "country": "DE",
    "coord": {
      "lon": 10.05,
      "lat": 51.349998
    }
  },
  {
    "id": 2823044,
    "name": "Thalmassing",
    "country": "DE",
    "coord": {
      "lon": 11.22306,
      "lat": 49.088058
    }
  },
  {
    "id": 2823245,
    "name": "Teuschnitz",
    "country": "DE",
    "coord": {
      "lon": 11.38333,
      "lat": 50.383331
    }
  },
  {
    "id": 6556534,
    "name": "Tettenweis",
    "country": "DE",
    "coord": {
      "lon": 13.2667,
      "lat": 48.4333
    }
  },
  {
    "id": 2823372,
    "name": "Tettenweis",
    "country": "DE",
    "coord": {
      "lon": 13.26955,
      "lat": 48.44281
    }
  },
  {
    "id": 6547638,
    "name": "Tettau",
    "country": "DE",
    "coord": {
      "lon": 13.7333,
      "lat": 51.4333
    }
  },
  {
    "id": 2823393,
    "name": "Tettau",
    "country": "DE",
    "coord": {
      "lon": 13.73333,
      "lat": 51.433331
    }
  },
  {
    "id": 2823395,
    "name": "Tettau",
    "country": "DE",
    "coord": {
      "lon": 11.25,
      "lat": 50.466671
    }
  },
  {
    "id": 6548224,
    "name": "Testorf-Steinfort",
    "country": "DE",
    "coord": {
      "lon": 11.2667,
      "lat": 53.783298
    }
  },
  {
    "id": 2823407,
    "name": "Testorf-Steinfort",
    "country": "DE",
    "coord": {
      "lon": 11.26667,
      "lat": 53.783329
    }
  },
  {
    "id": 2823418,
    "name": "Tessin",
    "country": "DE",
    "coord": {
      "lon": 12.46519,
      "lat": 54.027641
    }
  },
  {
    "id": 7602484,
    "name": "Wittendörp",
    "country": "DE",
    "coord": {
      "lon": 11.02461,
      "lat": 53.562851
    }
  },
  {
    "id": 2823420,
    "name": "Wittendoerp",
    "country": "DE",
    "coord": {
      "lon": 11.02461,
      "lat": 53.562851
    }
  },
  {
    "id": 2823497,
    "name": "Tennenbronn",
    "country": "DE",
    "coord": {
      "lon": 8.35176,
      "lat": 48.190411
    }
  },
  {
    "id": 2823515,
    "name": "Tengen",
    "country": "DE",
    "coord": {
      "lon": 8.66117,
      "lat": 47.821281
    }
  },
  {
    "id": 2823611,
    "name": "Teisendorf",
    "country": "DE",
    "coord": {
      "lon": 12.81667,
      "lat": 47.849998
    }
  },
  {
    "id": 6550523,
    "name": "Teichwitz",
    "country": "DE",
    "coord": {
      "lon": 12.0833,
      "lat": 50.75
    }
  },
  {
    "id": 2823626,
    "name": "Teichwitz",
    "country": "DE",
    "coord": {
      "lon": 12.08333,
      "lat": 50.75
    }
  },
  {
    "id": 2823679,
    "name": "Tegernsee",
    "country": "DE",
    "coord": {
      "lon": 11.75271,
      "lat": 47.709671
    }
  },
  {
    "id": 6548389,
    "name": "Techentin",
    "country": "DE",
    "coord": {
      "lon": 11.9833,
      "lat": 53.583302
    }
  },
  {
    "id": 2823737,
    "name": "Techentin",
    "country": "DE",
    "coord": {
      "lon": 11.9878,
      "lat": 53.587311
    }
  },
  {
    "id": 6550413,
    "name": "Tautenhain",
    "country": "DE",
    "coord": {
      "lon": 11.9167,
      "lat": 50.9333
    }
  },
  {
    "id": 2823764,
    "name": "Tautenhain",
    "country": "DE",
    "coord": {
      "lon": 11.91667,
      "lat": 50.933331
    }
  },
  {
    "id": 6550412,
    "name": "Tautendorf",
    "country": "DE",
    "coord": {
      "lon": 11.9,
      "lat": 50.8167
    }
  },
  {
    "id": 2823768,
    "name": "Tautendorf",
    "country": "DE",
    "coord": {
      "lon": 11.9,
      "lat": 50.816669
    }
  },
  {
    "id": 6548662,
    "name": "Tauscha",
    "country": "DE",
    "coord": {
      "lon": 13.8,
      "lat": 51.266701
    }
  },
  {
    "id": 2823788,
    "name": "Tauscha",
    "country": "DE",
    "coord": {
      "lon": 13.8,
      "lat": 51.26667
    }
  },
  {
    "id": 2823810,
    "name": "Taufkirchen",
    "country": "DE",
    "coord": {
      "lon": 12.13333,
      "lat": 48.349998
    }
  },
  {
    "id": 6556304,
    "name": "Taufkirchen",
    "country": "DE",
    "coord": {
      "lon": 12.45,
      "lat": 48.150002
    }
  },
  {
    "id": 2823811,
    "name": "Taufkirchen",
    "country": "DE",
    "coord": {
      "lon": 12.45,
      "lat": 48.150002
    }
  },
  {
    "id": 6551105,
    "name": "Tauche",
    "country": "DE",
    "coord": {
      "lon": 14.1306,
      "lat": 52.1292
    }
  },
  {
    "id": 2823835,
    "name": "Tauche",
    "country": "DE",
    "coord": {
      "lon": 14.16667,
      "lat": 52.150002
    }
  },
  {
    "id": 6551615,
    "name": "Tating",
    "country": "DE",
    "coord": {
      "lon": 8.71667,
      "lat": 54.333302
    }
  },
  {
    "id": 2823936,
    "name": "Tating",
    "country": "DE",
    "coord": {
      "lon": 8.71667,
      "lat": 54.333328
    }
  },
  {
    "id": 6549820,
    "name": "Tastungen",
    "country": "DE",
    "coord": {
      "lon": 10.3167,
      "lat": 51.466702
    }
  },
  {
    "id": 2823951,
    "name": "Tastungen",
    "country": "DE",
    "coord": {
      "lon": 10.30964,
      "lat": 51.469189
    }
  },
  {
    "id": 6547907,
    "name": "Tarnow",
    "country": "DE",
    "coord": {
      "lon": 12.0167,
      "lat": 53.783298
    }
  },
  {
    "id": 2823981,
    "name": "Tarnow",
    "country": "DE",
    "coord": {
      "lon": 12.01667,
      "lat": 53.783329
    }
  },
  {
    "id": 6547750,
    "name": "Tantow",
    "country": "DE",
    "coord": {
      "lon": 14.35,
      "lat": 53.266701
    }
  },
  {
    "id": 2824020,
    "name": "Tantow",
    "country": "DE",
    "coord": {
      "lon": 14.35098,
      "lat": 53.271629
    }
  },
  {
    "id": 6555600,
    "name": "Tannhausen",
    "country": "DE",
    "coord": {
      "lon": 10.3581,
      "lat": 48.978001
    }
  },
  {
    "id": 2824055,
    "name": "Tannhausen",
    "country": "DE",
    "coord": {
      "lon": 10.35,
      "lat": 48.966671
    }
  },
  {
    "id": 2824148,
    "name": "Tannenbergsthal",
    "country": "DE",
    "coord": {
      "lon": 12.46667,
      "lat": 50.433331
    }
  },
  {
    "id": 2824230,
    "name": "Tann",
    "country": "DE",
    "coord": {
      "lon": 12.89301,
      "lat": 48.314629
    }
  },
  {
    "id": 6552289,
    "name": "Tangstedt",
    "country": "DE",
    "coord": {
      "lon": 10.0645,
      "lat": 53.748798
    }
  },
  {
    "id": 2824245,
    "name": "Tangstedt",
    "country": "DE",
    "coord": {
      "lon": 10.08333,
      "lat": 53.73333
    }
  },
  {
    "id": 2824254,
    "name": "Tangermunde",
    "country": "DE",
    "coord": {
      "lon": 11.97647,
      "lat": 52.544628
    }
  },
  {
    "id": 6551510,
    "name": "Talkau",
    "country": "DE",
    "coord": {
      "lon": 10.5667,
      "lat": 53.5667
    }
  },
  {
    "id": 2824303,
    "name": "Talkau",
    "country": "DE",
    "coord": {
      "lon": 10.56667,
      "lat": 53.566669
    }
  },
  {
    "id": 6555533,
    "name": "Talheim",
    "country": "DE",
    "coord": {
      "lon": 9.19306,
      "lat": 49.083302
    }
  },
  {
    "id": 2824316,
    "name": "Talheim",
    "country": "DE",
    "coord": {
      "lon": 9.19306,
      "lat": 49.083328
    }
  },
  {
    "id": 6555852,
    "name": "Talheim",
    "country": "DE",
    "coord": {
      "lon": 8.66667,
      "lat": 48.016701
    }
  },
  {
    "id": 2824319,
    "name": "Talheim",
    "country": "DE",
    "coord": {
      "lon": 8.66667,
      "lat": 48.01667
    }
  },
  {
    "id": 2824419,
    "name": "Taching am See",
    "country": "DE",
    "coord": {
      "lon": 12.73333,
      "lat": 47.966671
    }
  },
  {
    "id": 6554796,
    "name": "Taben-Rodt",
    "country": "DE",
    "coord": {
      "lon": 6.58333,
      "lat": 49.549999
    }
  },
  {
    "id": 2824431,
    "name": "Taben-Rodt",
    "country": "DE",
    "coord": {
      "lon": 6.58333,
      "lat": 49.549999
    }
  },
  {
    "id": 6552002,
    "name": "Taarstedt",
    "country": "DE",
    "coord": {
      "lon": 9.68333,
      "lat": 54.5667
    }
  },
  {
    "id": 2824441,
    "name": "Taarstedt",
    "country": "DE",
    "coord": {
      "lon": 9.68333,
      "lat": 54.566669
    }
  },
  {
    "id": 6548543,
    "name": "Syrau",
    "country": "DE",
    "coord": {
      "lon": 12.0833,
      "lat": 50.533298
    }
  },
  {
    "id": 2824448,
    "name": "Syrau",
    "country": "DE",
    "coord": {
      "lon": 12.08333,
      "lat": 50.533329
    }
  },
  {
    "id": 6552921,
    "name": "Surwold",
    "country": "DE",
    "coord": {
      "lon": 7.51667,
      "lat": 52.950001
    }
  },
  {
    "id": 2824572,
    "name": "Surwold",
    "country": "DE",
    "coord": {
      "lon": 7.51534,
      "lat": 52.978001
    }
  },
  {
    "id": 6549943,
    "name": "Sundhausen",
    "country": "DE",
    "coord": {
      "lon": 10.7167,
      "lat": 51.166698
    }
  },
  {
    "id": 2824642,
    "name": "Sundhausen",
    "country": "DE",
    "coord": {
      "lon": 10.71667,
      "lat": 51.166672
    }
  },
  {
    "id": 6554876,
    "name": "Sulzheim",
    "country": "DE",
    "coord": {
      "lon": 8.09167,
      "lat": 49.843102
    }
  },
  {
    "id": 2824730,
    "name": "Sulzheim",
    "country": "DE",
    "coord": {
      "lon": 8.09167,
      "lat": 49.84306
    }
  },
  {
    "id": 2824738,
    "name": "Sulzfeld am Main",
    "country": "DE",
    "coord": {
      "lon": 10.13248,
      "lat": 49.70694
    }
  },
  {
    "id": 6550044,
    "name": "Sülzfeld",
    "country": "DE",
    "coord": {
      "lon": 10.3624,
      "lat": 50.522701
    }
  },
  {
    "id": 2824739,
    "name": "Sulzfeld",
    "country": "DE",
    "coord": {
      "lon": 10.36667,
      "lat": 50.533329
    }
  },
  {
    "id": 6556989,
    "name": "Sulzfeld",
    "country": "DE",
    "coord": {
      "lon": 10.40689,
      "lat": 50.259331
    }
  },
  {
    "id": 2824741,
    "name": "Sulzfeld",
    "country": "DE",
    "coord": {
      "lon": 10.40525,
      "lat": 50.25972
    }
  },
  {
    "id": 6555614,
    "name": "Sulzfeld",
    "country": "DE",
    "coord": {
      "lon": 8.8597,
      "lat": 49.104401
    }
  },
  {
    "id": 2824742,
    "name": "Sulzfeld",
    "country": "DE",
    "coord": {
      "lon": 8.85583,
      "lat": 49.104721
    }
  },
  {
    "id": 2824770,
    "name": "Sulzdorf",
    "country": "DE",
    "coord": {
      "lon": 9.9,
      "lat": 49.650002
    }
  },
  {
    "id": 2824776,
    "name": "Sulzburg",
    "country": "DE",
    "coord": {
      "lon": 7.70777,
      "lat": 47.84116
    }
  },
  {
    "id": 2824787,
    "name": "Sulzberg",
    "country": "DE",
    "coord": {
      "lon": 10.35,
      "lat": 47.666672
    }
  },
  {
    "id": 6554104,
    "name": "Sulzbach",
    "country": "DE",
    "coord": {
      "lon": 7.75,
      "lat": 50.299999
    }
  },
  {
    "id": 2824835,
    "name": "Sulzbach",
    "country": "DE",
    "coord": {
      "lon": 7.75,
      "lat": 50.299999
    }
  },
  {
    "id": 6553647,
    "name": "Sulzbach",
    "country": "DE",
    "coord": {
      "lon": 7.33333,
      "lat": 49.833302
    }
  },
  {
    "id": 2824838,
    "name": "Sulzbach",
    "country": "DE",
    "coord": {
      "lon": 7.33333,
      "lat": 49.833328
    }
  },
  {
    "id": 2824855,
    "name": "Sulz am Neckar",
    "country": "DE",
    "coord": {
      "lon": 8.63309,
      "lat": 48.362411
    }
  },
  {
    "id": 6548388,
    "name": "Sukow",
    "country": "DE",
    "coord": {
      "lon": 11.5667,
      "lat": 53.549999
    }
  },
  {
    "id": 2824926,
    "name": "Sukow",
    "country": "DE",
    "coord": {
      "lon": 11.56667,
      "lat": 53.549999
    }
  },
  {
    "id": 6551612,
    "name": "Süderhöft",
    "country": "DE",
    "coord": {
      "lon": 9.23333,
      "lat": 54.383301
    }
  },
  {
    "id": 2825130,
    "name": "Suderhoft",
    "country": "DE",
    "coord": {
      "lon": 9.23333,
      "lat": 54.383331
    }
  },
  {
    "id": 6551611,
    "name": "Süderende",
    "country": "DE",
    "coord": {
      "lon": 8.43333,
      "lat": 54.716702
    }
  },
  {
    "id": 2825158,
    "name": "Suderende",
    "country": "DE",
    "coord": {
      "lon": 8.43853,
      "lat": 54.726109
    }
  },
  {
    "id": 6551380,
    "name": "Süderdeich",
    "country": "DE",
    "coord": {
      "lon": 8.91667,
      "lat": 54.200001
    }
  },
  {
    "id": 2825173,
    "name": "Suderdeich",
    "country": "DE",
    "coord": {
      "lon": 8.91667,
      "lat": 54.200001
    }
  },
  {
    "id": 6551999,
    "name": "Süderbrarup",
    "country": "DE",
    "coord": {
      "lon": 9.77475,
      "lat": 54.635551
    }
  },
  {
    "id": 2825186,
    "name": "Suderbrarup",
    "country": "DE",
    "coord": {
      "lon": 9.78333,
      "lat": 54.633331
    }
  },
  {
    "id": 6548387,
    "name": "Suckow",
    "country": "DE",
    "coord": {
      "lon": 11.9667,
      "lat": 53.3167
    }
  },
  {
    "id": 2825248,
    "name": "Suckow",
    "country": "DE",
    "coord": {
      "lon": 11.97081,
      "lat": 53.30965
    }
  },
  {
    "id": 6548593,
    "name": "Stützengrün",
    "country": "DE",
    "coord": {
      "lon": 12.5333,
      "lat": 50.533298
    }
  },
  {
    "id": 2825275,
    "name": "Stutzengrun",
    "country": "DE",
    "coord": {
      "lon": 12.53333,
      "lat": 50.533329
    }
  },
  {
    "id": 6553449,
    "name": "Stürzelbach",
    "country": "DE",
    "coord": {
      "lon": 7.61667,
      "lat": 50.650002
    }
  },
  {
    "id": 2825333,
    "name": "Sturzelbach",
    "country": "DE",
    "coord": {
      "lon": 7.61667,
      "lat": 50.650002
    }
  },
  {
    "id": 6552615,
    "name": "Stubben",
    "country": "DE",
    "coord": {
      "lon": 8.78333,
      "lat": 53.400002
    }
  },
  {
    "id": 2825559,
    "name": "Stubben",
    "country": "DE",
    "coord": {
      "lon": 8.78391,
      "lat": 53.409019
    }
  },
  {
    "id": 6554103,
    "name": "Strüth",
    "country": "DE",
    "coord": {
      "lon": 7.88333,
      "lat": 50.133301
    }
  },
  {
    "id": 2825602,
    "name": "Struth",
    "country": "DE",
    "coord": {
      "lon": 7.88333,
      "lat": 50.133331
    }
  },
  {
    "id": 6554669,
    "name": "Strotzbüsch",
    "country": "DE",
    "coord": {
      "lon": 6.95,
      "lat": 50.099998
    }
  },
  {
    "id": 2825683,
    "name": "Strotzbusch",
    "country": "DE",
    "coord": {
      "lon": 6.95,
      "lat": 50.099998
    }
  },
  {
    "id": 2825715,
    "name": "Stromberg",
    "country": "DE",
    "coord": {
      "lon": 7.6,
      "lat": 50.450001
    }
  },
  {
    "id": 6554607,
    "name": "Strickscheid",
    "country": "DE",
    "coord": {
      "lon": 6.31667,
      "lat": 50.133301
    }
  },
  {
    "id": 2825849,
    "name": "Strickscheid",
    "country": "DE",
    "coord": {
      "lon": 6.31667,
      "lat": 50.133331
    }
  },
  {
    "id": 2826033,
    "name": "Strehla",
    "country": "DE",
    "coord": {
      "lon": 13.23333,
      "lat": 51.349998
    }
  },
  {
    "id": 6547575,
    "name": "Straupitz",
    "country": "DE",
    "coord": {
      "lon": 14.1167,
      "lat": 51.900002
    }
  },
  {
    "id": 2826088,
    "name": "Straupitz",
    "country": "DE",
    "coord": {
      "lon": 14.11667,
      "lat": 51.900002
    }
  },
  {
    "id": 6556600,
    "name": "Straßkirchen",
    "country": "DE",
    "coord": {
      "lon": 12.7167,
      "lat": 48.833302
    }
  },
  {
    "id": 2826120,
    "name": "Strasskirchen",
    "country": "DE",
    "coord": {
      "lon": 12.71667,
      "lat": 48.833328
    }
  },
  {
    "id": 6555957,
    "name": "Straßberg",
    "country": "DE",
    "coord": {
      "lon": 9.1,
      "lat": 48.166698
    }
  },
  {
    "id": 2826187,
    "name": "Strassberg",
    "country": "DE",
    "coord": {
      "lon": 9.09059,
      "lat": 48.178051
    }
  },
  {
    "id": 6547975,
    "name": "Stralendorf",
    "country": "DE",
    "coord": {
      "lon": 11.3,
      "lat": 53.583302
    }
  },
  {
    "id": 2826290,
    "name": "Stralendorf",
    "country": "DE",
    "coord": {
      "lon": 11.30356,
      "lat": 53.574982
    }
  },
  {
    "id": 2826341,
    "name": "Stotten am Auerberg",
    "country": "DE",
    "coord": {
      "lon": 10.68333,
      "lat": 47.73333
    }
  },
  {
    "id": 2826359,
    "name": "Stossdorf",
    "country": "DE",
    "coord": {
      "lon": 7.25126,
      "lat": 50.782478
    }
  },
  {
    "id": 6552059,
    "name": "Stoltebüll",
    "country": "DE",
    "coord": {
      "lon": 9.88333,
      "lat": 54.700001
    }
  },
  {
    "id": 2826516,
    "name": "Stoltebull",
    "country": "DE",
    "coord": {
      "lon": 9.88333,
      "lat": 54.700001
    }
  },
  {
    "id": 6548322,
    "name": "Stolpe",
    "country": "DE",
    "coord": {
      "lon": 13.5667,
      "lat": 53.866699
    }
  },
  {
    "id": 2826538,
    "name": "Stolpe",
    "country": "DE",
    "coord": {
      "lon": 13.56056,
      "lat": 53.872471
    }
  },
  {
    "id": 6548386,
    "name": "Stolpe",
    "country": "DE",
    "coord": {
      "lon": 11.7333,
      "lat": 53.349998
    }
  },
  {
    "id": 2826540,
    "name": "Stolpe",
    "country": "DE",
    "coord": {
      "lon": 11.73855,
      "lat": 53.359058
    }
  },
  {
    "id": 6555598,
    "name": "Stödtlen",
    "country": "DE",
    "coord": {
      "lon": 10.3,
      "lat": 49
    }
  },
  {
    "id": 2826637,
    "name": "Stodtlen",
    "country": "DE",
    "coord": {
      "lon": 10.3,
      "lat": 49
    }
  },
  {
    "id": 6556987,
    "name": "Stockheim",
    "country": "DE",
    "coord": {
      "lon": 10.2833,
      "lat": 50.450001
    }
  },
  {
    "id": 2826741,
    "name": "Stockheim",
    "country": "DE",
    "coord": {
      "lon": 10.28333,
      "lat": 50.450001
    }
  },
  {
    "id": 6556811,
    "name": "Stockheim",
    "country": "DE",
    "coord": {
      "lon": 11.2667,
      "lat": 50.299999
    }
  },
  {
    "id": 2826743,
    "name": "Stockheim",
    "country": "DE",
    "coord": {
      "lon": 11.26667,
      "lat": 50.299999
    }
  },
  {
    "id": 6554272,
    "name": "Stockhausen-Illfurth",
    "country": "DE",
    "coord": {
      "lon": 7.98333,
      "lat": 50.650002
    }
  },
  {
    "id": 2826755,
    "name": "Stockhausen-Illfurth",
    "country": "DE",
    "coord": {
      "lon": 7.98333,
      "lat": 50.650002
    }
  },
  {
    "id": 6549819,
    "name": "Stöckey",
    "country": "DE",
    "coord": {
      "lon": 10.5,
      "lat": 51.533298
    }
  },
  {
    "id": 2826789,
    "name": "Stockey",
    "country": "DE",
    "coord": {
      "lon": 10.5,
      "lat": 51.533329
    }
  },
  {
    "id": 6554507,
    "name": "Stockem",
    "country": "DE",
    "coord": {
      "lon": 6.38333,
      "lat": 49.9333
    }
  },
  {
    "id": 2826859,
    "name": "Stockem",
    "country": "DE",
    "coord": {
      "lon": 6.38333,
      "lat": 49.933331
    }
  },
  {
    "id": 6552138,
    "name": "Stipsdorf",
    "country": "DE",
    "coord": {
      "lon": 10.3333,
      "lat": 53.950001
    }
  },
  {
    "id": 2826974,
    "name": "Stipsdorf",
    "country": "DE",
    "coord": {
      "lon": 10.33333,
      "lat": 53.950001
    }
  },
  {
    "id": 6552614,
    "name": "Stinstedt",
    "country": "DE",
    "coord": {
      "lon": 8.96667,
      "lat": 53.666698
    }
  },
  {
    "id": 2826985,
    "name": "Stinstedt",
    "country": "DE",
    "coord": {
      "lon": 8.96667,
      "lat": 53.666672
    }
  },
  {
    "id": 6555561,
    "name": "Stimpfach",
    "country": "DE",
    "coord": {
      "lon": 10.0924,
      "lat": 49.06152
    }
  },
  {
    "id": 2826997,
    "name": "Stimpfach",
    "country": "DE",
    "coord": {
      "lon": 10.09274,
      "lat": 49.061352
    }
  },
  {
    "id": 2827216,
    "name": "Stetten am Kalten Markt",
    "country": "DE",
    "coord": {
      "lon": 9.07775,
      "lat": 48.124191
    }
  },
  {
    "id": 6554990,
    "name": "Stetten",
    "country": "DE",
    "coord": {
      "lon": 8.09194,
      "lat": 49.669399
    }
  },
  {
    "id": 2827223,
    "name": "Stetten",
    "country": "DE",
    "coord": {
      "lon": 8.09194,
      "lat": 49.669441
    }
  },
  {
    "id": 6557260,
    "name": "Stetten",
    "country": "DE",
    "coord": {
      "lon": 10.4333,
      "lat": 48.033298
    }
  },
  {
    "id": 2827240,
    "name": "Stetten",
    "country": "DE",
    "coord": {
      "lon": 10.43333,
      "lat": 48.033329
    }
  },
  {
    "id": 6556051,
    "name": "Stetten",
    "country": "DE",
    "coord": {
      "lon": 9.3,
      "lat": 47.6833
    }
  },
  {
    "id": 2827246,
    "name": "Stetten",
    "country": "DE",
    "coord": {
      "lon": 9.29855,
      "lat": 47.690121
    }
  },
  {
    "id": 6556383,
    "name": "Stephanskirchen",
    "country": "DE",
    "coord": {
      "lon": 12.1528,
      "lat": 47.859501
    }
  },
  {
    "id": 2827406,
    "name": "Stephanskirchen",
    "country": "DE",
    "coord": {
      "lon": 12.1856,
      "lat": 47.853889
    }
  },
  {
    "id": 6552754,
    "name": "Stemmen",
    "country": "DE",
    "coord": {
      "lon": 9.55,
      "lat": 53.216702
    }
  },
  {
    "id": 2827501,
    "name": "Stemmen",
    "country": "DE",
    "coord": {
      "lon": 9.55313,
      "lat": 53.224232
    }
  },
  {
    "id": 6551378,
    "name": "Stelle-Wittenwurth",
    "country": "DE",
    "coord": {
      "lon": 9.05,
      "lat": 54.266701
    }
  },
  {
    "id": 2827559,
    "name": "Stelle-Wittenwurth",
    "country": "DE",
    "coord": {
      "lon": 9.05,
      "lat": 54.26667
    }
  },
  {
    "id": 6555061,
    "name": "Steinwenden",
    "country": "DE",
    "coord": {
      "lon": 7.53333,
      "lat": 49.450001
    }
  },
  {
    "id": 2827613,
    "name": "Steinwenden",
    "country": "DE",
    "coord": {
      "lon": 7.53333,
      "lat": 49.450001
    }
  },
  {
    "id": 6556854,
    "name": "Steinsfeld",
    "country": "DE",
    "coord": {
      "lon": 10.2167,
      "lat": 49.416698
    }
  },
  {
    "id": 2827664,
    "name": "Steinsfeld",
    "country": "DE",
    "coord": {
      "lon": 10.21667,
      "lat": 49.416672
    }
  },
  {
    "id": 6550522,
    "name": "Steinsdorf",
    "country": "DE",
    "coord": {
      "lon": 12.05,
      "lat": 50.75
    }
  },
  {
    "id": 2827677,
    "name": "Steinsdorf",
    "country": "DE",
    "coord": {
      "lon": 12.05,
      "lat": 50.75
    }
  },
  {
    "id": 6549818,
    "name": "Steinrode",
    "country": "DE",
    "coord": {
      "lon": 10.4833,
      "lat": 51.5
    }
  },
  {
    "id": 2827702,
    "name": "Steinrode",
    "country": "DE",
    "coord": {
      "lon": 10.48333,
      "lat": 51.5
    }
  },
  {
    "id": 6556193,
    "name": "Steinkirchen",
    "country": "DE",
    "coord": {
      "lon": 12.0833,
      "lat": 48.383301
    }
  },
  {
    "id": 2827870,
    "name": "Steinkirchen",
    "country": "DE",
    "coord": {
      "lon": 12.08333,
      "lat": 48.383331
    }
  },
  {
    "id": 6549728,
    "name": "Steinitz",
    "country": "DE",
    "coord": {
      "lon": 11.1167,
      "lat": 52.833302
    }
  },
  {
    "id": 2827896,
    "name": "Steinitz",
    "country": "DE",
    "coord": {
      "lon": 11.11667,
      "lat": 52.833328
    }
  },
  {
    "id": 6554667,
    "name": "Steiningen",
    "country": "DE",
    "coord": {
      "lon": 6.91667,
      "lat": 50.1833
    }
  },
  {
    "id": 2827900,
    "name": "Steiningen",
    "country": "DE",
    "coord": {
      "lon": 6.91667,
      "lat": 50.183331
    }
  },
  {
    "id": 6551507,
    "name": "Steinhorst",
    "country": "DE",
    "coord": {
      "lon": 10.4833,
      "lat": 53.716702
    }
  },
  {
    "id": 2827950,
    "name": "Steinhorst",
    "country": "DE",
    "coord": {
      "lon": 10.48333,
      "lat": 53.716671
    }
  },
  {
    "id": 6551103,
    "name": "Steinhöfel",
    "country": "DE",
    "coord": {
      "lon": 14.1375,
      "lat": 52.426399
    }
  },
  {
    "id": 2827965,
    "name": "Steinhofel",
    "country": "DE",
    "coord": {
      "lon": 14.16667,
      "lat": 52.400002
    }
  },
  {
    "id": 6549817,
    "name": "Steinheuterode",
    "country": "DE",
    "coord": {
      "lon": 10.0667,
      "lat": 51.383301
    }
  },
  {
    "id": 2827983,
    "name": "Steinheuterode",
    "country": "DE",
    "coord": {
      "lon": 10.06667,
      "lat": 51.383331
    }
  },
  {
    "id": 6555573,
    "name": "Steinheim am Albuch",
    "country": "DE",
    "coord": {
      "lon": 10.0412,
      "lat": 48.692699
    }
  },
  {
    "id": 2827989,
    "name": "Steinheim am Albuch",
    "country": "DE",
    "coord": {
      "lon": 10.06382,
      "lat": 48.690899
    }
  },
  {
    "id": 6556028,
    "name": "Steinhausen an der Rottum",
    "country": "DE",
    "coord": {
      "lon": 9.96667,
      "lat": 48.016701
    }
  },
  {
    "id": 2828007,
    "name": "Steinhausen an der Rottum",
    "country": "DE",
    "coord": {
      "lon": 9.96667,
      "lat": 48.01667
    }
  },
  {
    "id": 2828016,
    "name": "Steinhausen",
    "country": "DE",
    "coord": {
      "lon": 9.7,
      "lat": 48.033329
    }
  },
  {
    "id": 6548143,
    "name": "Steinhagen",
    "country": "DE",
    "coord": {
      "lon": 12.9833,
      "lat": 54.216702
    }
  },
  {
    "id": 2828045,
    "name": "Steinhagen",
    "country": "DE",
    "coord": {
      "lon": 12.98867,
      "lat": 54.226158
    }
  },
  {
    "id": 6547906,
    "name": "Steinhagen",
    "country": "DE",
    "coord": {
      "lon": 11.9333,
      "lat": 53.849998
    }
  },
  {
    "id": 2828048,
    "name": "Steinhagen",
    "country": "DE",
    "coord": {
      "lon": 11.93333,
      "lat": 53.849998
    }
  },
  {
    "id": 6556446,
    "name": "Steingaden",
    "country": "DE",
    "coord": {
      "lon": 10.8667,
      "lat": 47.700001
    }
  },
  {
    "id": 2828089,
    "name": "Steingaden",
    "country": "DE",
    "coord": {
      "lon": 10.86667,
      "lat": 47.700001
    }
  },
  {
    "id": 6551996,
    "name": "Steinfeld",
    "country": "DE",
    "coord": {
      "lon": 9.75,
      "lat": 54.599998
    }
  },
  {
    "id": 2828129,
    "name": "Steinfeld",
    "country": "DE",
    "coord": {
      "lon": 9.75,
      "lat": 54.599998
    }
  },
  {
    "id": 6547799,
    "name": "Steinfeld",
    "country": "DE",
    "coord": {
      "lon": 12.3167,
      "lat": 54.099998
    }
  },
  {
    "id": 2828131,
    "name": "Steinfeld",
    "country": "DE",
    "coord": {
      "lon": 12.30975,
      "lat": 54.108131
    }
  },
  {
    "id": 2828136,
    "name": "Steinfeld",
    "country": "DE",
    "coord": {
      "lon": 8.21667,
      "lat": 52.599998
    }
  },
  {
    "id": 6557050,
    "name": "Steinfeld",
    "country": "DE",
    "coord": {
      "lon": 9.66944,
      "lat": 49.952801
    }
  },
  {
    "id": 2828140,
    "name": "Steinfeld",
    "country": "DE",
    "coord": {
      "lon": 9.66944,
      "lat": 49.952782
    }
  },
  {
    "id": 6554179,
    "name": "Steinen",
    "country": "DE",
    "coord": {
      "lon": 7.8,
      "lat": 50.583302
    }
  },
  {
    "id": 2828227,
    "name": "Steinen",
    "country": "DE",
    "coord": {
      "lon": 7.8,
      "lat": 50.583328
    }
  },
  {
    "id": 6554178,
    "name": "Steinefrenz",
    "country": "DE",
    "coord": {
      "lon": 7.93333,
      "lat": 50.466702
    }
  },
  {
    "id": 2828241,
    "name": "Steinefrenz",
    "country": "DE",
    "coord": {
      "lon": 7.93333,
      "lat": 50.466671
    }
  },
  {
    "id": 6554666,
    "name": "Steineberg",
    "country": "DE",
    "coord": {
      "lon": 6.91667,
      "lat": 50.1833
    }
  },
  {
    "id": 2828249,
    "name": "Steineberg",
    "country": "DE",
    "coord": {
      "lon": 6.91667,
      "lat": 50.183331
    }
  },
  {
    "id": 6554606,
    "name": "Steinborn",
    "country": "DE",
    "coord": {
      "lon": 6.63333,
      "lat": 50.0667
    }
  },
  {
    "id": 2828384,
    "name": "Steinborn",
    "country": "DE",
    "coord": {
      "lon": 6.63333,
      "lat": 50.066669
    }
  },
  {
    "id": 6552057,
    "name": "Steinbergkirche",
    "country": "DE",
    "coord": {
      "lon": 9.7545,
      "lat": 54.7719
    }
  },
  {
    "id": 2828396,
    "name": "Steinbergkirche",
    "country": "DE",
    "coord": {
      "lon": 9.76667,
      "lat": 54.75
    }
  },
  {
    "id": 6556707,
    "name": "Steinberg",
    "country": "DE",
    "coord": {
      "lon": 12.1833,
      "lat": 49.283298
    }
  },
  {
    "id": 2828443,
    "name": "Steinberg",
    "country": "DE",
    "coord": {
      "lon": 12.18333,
      "lat": 49.283329
    }
  },
  {
    "id": 2828685,
    "name": "Stein bei Nurnberg",
    "country": "DE",
    "coord": {
      "lon": 11.01667,
      "lat": 49.416672
    }
  },
  {
    "id": 2828723,
    "name": "Kurort Steinbach-Hallenberg",
    "country": "DE",
    "coord": {
      "lon": 10.56667,
      "lat": 50.700001
    }
  },
  {
    "id": 6554989,
    "name": "Steinbach am Donnersberg",
    "country": "DE",
    "coord": {
      "lon": 7.95,
      "lat": 49.599998
    }
  },
  {
    "id": 2828738,
    "name": "Steinbach am Donnersberg",
    "country": "DE",
    "coord": {
      "lon": 7.95,
      "lat": 49.599998
    }
  },
  {
    "id": 6549816,
    "name": "Steinbach",
    "country": "DE",
    "coord": {
      "lon": 10.2167,
      "lat": 51.416698
    }
  },
  {
    "id": 2828788,
    "name": "Steinbach",
    "country": "DE",
    "coord": {
      "lon": 10.21866,
      "lat": 51.422119
    }
  },
  {
    "id": 6549896,
    "name": "Steinbach",
    "country": "DE",
    "coord": {
      "lon": 10.3667,
      "lat": 50.833302
    }
  },
  {
    "id": 2828795,
    "name": "Steinbach",
    "country": "DE",
    "coord": {
      "lon": 10.36667,
      "lat": 50.833328
    }
  },
  {
    "id": 2828805,
    "name": "Steinbach",
    "country": "DE",
    "coord": {
      "lon": 11.65,
      "lat": 50.150002
    }
  },
  {
    "id": 6553971,
    "name": "Steinbach",
    "country": "DE",
    "coord": {
      "lon": 7.6,
      "lat": 50.033298
    }
  },
  {
    "id": 2828806,
    "name": "Steinbach",
    "country": "DE",
    "coord": {
      "lon": 7.6,
      "lat": 50.033329
    }
  },
  {
    "id": 6552613,
    "name": "Steinau",
    "country": "DE",
    "coord": {
      "lon": 8.88333,
      "lat": 53.6833
    }
  },
  {
    "id": 2828869,
    "name": "Steinau",
    "country": "DE",
    "coord": {
      "lon": 8.88333,
      "lat": 53.683331
    }
  },
  {
    "id": 6556599,
    "name": "Steinach",
    "country": "DE",
    "coord": {
      "lon": 12.6167,
      "lat": 48.950001
    }
  },
  {
    "id": 2828911,
    "name": "Steinach",
    "country": "DE",
    "coord": {
      "lon": 12.61667,
      "lat": 48.950001
    }
  },
  {
    "id": 6555805,
    "name": "Steinach",
    "country": "DE",
    "coord": {
      "lon": 8.05,
      "lat": 48.299999
    }
  },
  {
    "id": 2828913,
    "name": "Steinach",
    "country": "DE",
    "coord": {
      "lon": 8.05,
      "lat": 48.299999
    }
  },
  {
    "id": 6548733,
    "name": "Steina",
    "country": "DE",
    "coord": {
      "lon": 14.05,
      "lat": 51.200001
    }
  },
  {
    "id": 2828923,
    "name": "Steina",
    "country": "DE",
    "coord": {
      "lon": 14.05,
      "lat": 51.200001
    }
  },
  {
    "id": 6551778,
    "name": "Stein",
    "country": "DE",
    "coord": {
      "lon": 10.2667,
      "lat": 54.416698
    }
  },
  {
    "id": 2828929,
    "name": "Stein",
    "country": "DE",
    "coord": {
      "lon": 10.26667,
      "lat": 54.416672
    }
  },
  {
    "id": 6557202,
    "name": "Stiefenhofen",
    "country": "DE",
    "coord": {
      "lon": 10,
      "lat": 47.599998
    }
  },
  {
    "id": 2829080,
    "name": "Stiefenhofen",
    "country": "DE",
    "coord": {
      "lon": 10.00365,
      "lat": 47.593201
    }
  },
  {
    "id": 6555761,
    "name": "Stegen",
    "country": "DE",
    "coord": {
      "lon": 7.96667,
      "lat": 47.983299
    }
  },
  {
    "id": 2829130,
    "name": "Stegen",
    "country": "DE",
    "coord": {
      "lon": 7.96667,
      "lat": 47.98333
    }
  },
  {
    "id": 6556747,
    "name": "Stegaurach",
    "country": "DE",
    "coord": {
      "lon": 10.8333,
      "lat": 49.866699
    }
  },
  {
    "id": 2829145,
    "name": "Stegaurach",
    "country": "DE",
    "coord": {
      "lon": 10.84385,
      "lat": 49.865429
    }
  },
  {
    "id": 6547798,
    "name": "Steffenshagen",
    "country": "DE",
    "coord": {
      "lon": 11.8333,
      "lat": 54.099998
    }
  },
  {
    "id": 2829154,
    "name": "Steffenshagen",
    "country": "DE",
    "coord": {
      "lon": 11.83333,
      "lat": 54.099998
    }
  },
  {
    "id": 6547974,
    "name": "Steesow",
    "country": "DE",
    "coord": {
      "lon": 11.5333,
      "lat": 53.166698
    }
  },
  {
    "id": 2829168,
    "name": "Steesow",
    "country": "DE",
    "coord": {
      "lon": 11.54406,
      "lat": 53.15881
    }
  },
  {
    "id": 2829210,
    "name": "Stedten",
    "country": "DE",
    "coord": {
      "lon": 11.68333,
      "lat": 51.433331
    }
  },
  {
    "id": 6553016,
    "name": "Stedesdorf",
    "country": "DE",
    "coord": {
      "lon": 7.66418,
      "lat": 53.625401
    }
  },
  {
    "id": 2829218,
    "name": "Stedesdorf",
    "country": "DE",
    "coord": {
      "lon": 7.66667,
      "lat": 53.633331
    }
  },
  {
    "id": 6548022,
    "name": "Staven",
    "country": "DE",
    "coord": {
      "lon": 13.4,
      "lat": 53.633301
    }
  },
  {
    "id": 2829291,
    "name": "Staven",
    "country": "DE",
    "coord": {
      "lon": 13.4,
      "lat": 53.633331
    }
  },
  {
    "id": 2829322,
    "name": "Staufenberg",
    "country": "DE",
    "coord": {
      "lon": 8.71667,
      "lat": 50.666672
    }
  },
  {
    "id": 2829333,
    "name": "Staufen",
    "country": "DE",
    "coord": {
      "lon": 8.21667,
      "lat": 47.75
    }
  },
  {
    "id": 6556176,
    "name": "Stammham",
    "country": "DE",
    "coord": {
      "lon": 11.4667,
      "lat": 48.849998
    }
  },
  {
    "id": 2829580,
    "name": "Stammham",
    "country": "DE",
    "coord": {
      "lon": 11.46667,
      "lat": 48.849998
    }
  },
  {
    "id": 2829581,
    "name": "Stammham",
    "country": "DE",
    "coord": {
      "lon": 11.86961,
      "lat": 48.29604
    }
  },
  {
    "id": 6556598,
    "name": "Stallwang",
    "country": "DE",
    "coord": {
      "lon": 12.6667,
      "lat": 49.049999
    }
  },
  {
    "id": 2829602,
    "name": "Stallwang",
    "country": "DE",
    "coord": {
      "lon": 12.66667,
      "lat": 49.049999
    }
  },
  {
    "id": 6556000,
    "name": "Staig",
    "country": "DE",
    "coord": {
      "lon": 9.98333,
      "lat": 48.299999
    }
  },
  {
    "id": 2829644,
    "name": "Staig",
    "country": "DE",
    "coord": {
      "lon": 9.99138,
      "lat": 48.29998
    }
  },
  {
    "id": 3220852,
    "name": "Landkreis Lichtenfels",
    "country": "DE",
    "coord": {
      "lon": 11.1175,
      "lat": 50.121941
    }
  },
  {
    "id": 2829701,
    "name": "Bad Staffelstein",
    "country": "DE",
    "coord": {
      "lon": 11.00128,
      "lat": 50.10199
    }
  },
  {
    "id": 2829742,
    "name": "Stadtsteinach",
    "country": "DE",
    "coord": {
      "lon": 11.5,
      "lat": 50.166672
    }
  },
  {
    "id": 2829750,
    "name": "Stadtroda",
    "country": "DE",
    "coord": {
      "lon": 11.73333,
      "lat": 50.849998
    }
  },
  {
    "id": 6556706,
    "name": "Stadlern",
    "country": "DE",
    "coord": {
      "lon": 12.6167,
      "lat": 49.5
    }
  },
  {
    "id": 2829825,
    "name": "Stadlern",
    "country": "DE",
    "coord": {
      "lon": 12.61667,
      "lat": 49.5
    }
  },
  {
    "id": 6556746,
    "name": "Stadelhofen",
    "country": "DE",
    "coord": {
      "lon": 11.19759,
      "lat": 50.003151
    }
  },
  {
    "id": 2829876,
    "name": "Stadelhofen",
    "country": "DE",
    "coord": {
      "lon": 11.19757,
      "lat": 50.00317
    }
  },
  {
    "id": 6547522,
    "name": "Spiesen-Elversberg",
    "country": "DE",
    "coord": {
      "lon": 7.13333,
      "lat": 49.3167
    }
  },
  {
    "id": 2830452,
    "name": "Spiesen-Elversberg",
    "country": "DE",
    "coord": {
      "lon": 7.13333,
      "lat": 49.316669
    }
  },
  {
    "id": 6547430,
    "name": "Spesenroth",
    "country": "DE",
    "coord": {
      "lon": 7.45,
      "lat": 50.049999
    }
  },
  {
    "id": 2830593,
    "name": "Spesenroth",
    "country": "DE",
    "coord": {
      "lon": 7.45,
      "lat": 50.049999
    }
  },
  {
    "id": 6556249,
    "name": "Spatzenhausen",
    "country": "DE",
    "coord": {
      "lon": 11.2,
      "lat": 47.716702
    }
  },
  {
    "id": 2830768,
    "name": "Spatzenhausen",
    "country": "DE",
    "coord": {
      "lon": 11.2,
      "lat": 47.716671
    }
  },
  {
    "id": 6556874,
    "name": "Spardorf",
    "country": "DE",
    "coord": {
      "lon": 11.05,
      "lat": 49.616699
    }
  },
  {
    "id": 2830803,
    "name": "Spardorf",
    "country": "DE",
    "coord": {
      "lon": 11.05585,
      "lat": 49.60854
    }
  },
  {
    "id": 6554605,
    "name": "Spangdahlem",
    "country": "DE",
    "coord": {
      "lon": 6.68333,
      "lat": 49.983299
    }
  },
  {
    "id": 2830832,
    "name": "Spangdahlem",
    "country": "DE",
    "coord": {
      "lon": 6.68333,
      "lat": 49.98333
    }
  },
  {
    "id": 2830849,
    "name": "Spalt",
    "country": "DE",
    "coord": {
      "lon": 10.92453,
      "lat": 49.175529
    }
  },
  {
    "id": 6553545,
    "name": "Spabrücken",
    "country": "DE",
    "coord": {
      "lon": 7.71667,
      "lat": 49.900002
    }
  },
  {
    "id": 2830869,
    "name": "Spabrucken",
    "country": "DE",
    "coord": {
      "lon": 7.71667,
      "lat": 49.900002
    }
  },
  {
    "id": 6556382,
    "name": "Soyen",
    "country": "DE",
    "coord": {
      "lon": 12.2,
      "lat": 48.116699
    }
  },
  {
    "id": 2830873,
    "name": "Soyen",
    "country": "DE",
    "coord": {
      "lon": 12.2,
      "lat": 48.116669
    }
  },
  {
    "id": 6552753,
    "name": "Sottrum",
    "country": "DE",
    "coord": {
      "lon": 9.2614,
      "lat": 53.115501
    }
  },
  {
    "id": 2830880,
    "name": "Sottrum",
    "country": "DE",
    "coord": {
      "lon": 9.23333,
      "lat": 53.116669
    }
  },
  {
    "id": 6549256,
    "name": "Sössen",
    "country": "DE",
    "coord": {
      "lon": 12.1,
      "lat": 51.216702
    }
  },
  {
    "id": 2830899,
    "name": "Sossen",
    "country": "DE",
    "coord": {
      "lon": 12.1,
      "lat": 51.216671
    }
  },
  {
    "id": 6551921,
    "name": "Sophienhamm",
    "country": "DE",
    "coord": {
      "lon": 9.46667,
      "lat": 54.283298
    }
  },
  {
    "id": 2831058,
    "name": "Sophienhamm",
    "country": "DE",
    "coord": {
      "lon": 9.46667,
      "lat": 54.283329
    }
  },
  {
    "id": 6557259,
    "name": "Sontheim",
    "country": "DE",
    "coord": {
      "lon": 10.35,
      "lat": 48
    }
  },
  {
    "id": 2831097,
    "name": "Sontheim",
    "country": "DE",
    "coord": {
      "lon": 10.35,
      "lat": 48
    }
  },
  {
    "id": 6553645,
    "name": "Sonnschied",
    "country": "DE",
    "coord": {
      "lon": 7.38333,
      "lat": 49.8167
    }
  },
  {
    "id": 2831109,
    "name": "Sonnschied",
    "country": "DE",
    "coord": {
      "lon": 7.38333,
      "lat": 49.816669
    }
  },
  {
    "id": 2831121,
    "name": "Sonnewalde",
    "country": "DE",
    "coord": {
      "lon": 13.65,
      "lat": 51.683331
    }
  },
  {
    "id": 6553644,
    "name": "Sonnenberg-Winnenberg",
    "country": "DE",
    "coord": {
      "lon": 7.28333,
      "lat": 49.666698
    }
  },
  {
    "id": 2831183,
    "name": "Sonnenberg-Winnenberg",
    "country": "DE",
    "coord": {
      "lon": 7.28333,
      "lat": 49.666672
    }
  },
  {
    "id": 6556533,
    "name": "Sonnen",
    "country": "DE",
    "coord": {
      "lon": 13.7167,
      "lat": 48.6833
    }
  },
  {
    "id": 2831236,
    "name": "Sonnen",
    "country": "DE",
    "coord": {
      "lon": 13.71667,
      "lat": 48.683331
    }
  },
  {
    "id": 6550101,
    "name": "Sonneborn",
    "country": "DE",
    "coord": {
      "lon": 10.5833,
      "lat": 51
    }
  },
  {
    "id": 2831242,
    "name": "Sonneborn",
    "country": "DE",
    "coord": {
      "lon": 10.58333,
      "lat": 51
    }
  },
  {
    "id": 2831269,
    "name": "Sondheim vor der Rhoen",
    "country": "DE",
    "coord": {
      "lon": 10.16667,
      "lat": 50.466671
    }
  },
  {
    "id": 6547854,
    "name": "Sommersdorf",
    "country": "DE",
    "coord": {
      "lon": 12.9,
      "lat": 53.799999
    }
  },
  {
    "id": 2831342,
    "name": "Sommersdorf",
    "country": "DE",
    "coord": {
      "lon": 12.9,
      "lat": 53.799999
    }
  },
  {
    "id": 6553544,
    "name": "Sommerloch",
    "country": "DE",
    "coord": {
      "lon": 7.76667,
      "lat": 49.883301
    }
  },
  {
    "id": 2831366,
    "name": "Sommerloch",
    "country": "DE",
    "coord": {
      "lon": 7.75995,
      "lat": 49.87727
    }
  },
  {
    "id": 6552245,
    "name": "Sommerland",
    "country": "DE",
    "coord": {
      "lon": 9.53749,
      "lat": 53.8036
    }
  },
  {
    "id": 2831369,
    "name": "Sommerland",
    "country": "DE",
    "coord": {
      "lon": 9.53748,
      "lat": 53.8036
    }
  },
  {
    "id": 6556958,
    "name": "Sommerkahl",
    "country": "DE",
    "coord": {
      "lon": 9.26667,
      "lat": 50.0667
    }
  },
  {
    "id": 2831377,
    "name": "Sommerkahl",
    "country": "DE",
    "coord": {
      "lon": 9.26667,
      "lat": 50.066669
    }
  },
  {
    "id": 6552831,
    "name": "Soltendieck",
    "country": "DE",
    "coord": {
      "lon": 10.7667,
      "lat": 52.866699
    }
  },
  {
    "id": 2831479,
    "name": "Soltendieck",
    "country": "DE",
    "coord": {
      "lon": 10.76162,
      "lat": 52.873692
    }
  },
  {
    "id": 2831497,
    "name": "Solms",
    "country": "DE",
    "coord": {
      "lon": 9.6,
      "lat": 50.76667
    }
  },
  {
    "id": 7602474,
    "name": "Sollstedt",
    "country": "DE",
    "coord": {
      "lon": 10.53333,
      "lat": 51.416672
    }
  },
  {
    "id": 2831501,
    "name": "Sollstedt",
    "country": "DE",
    "coord": {
      "lon": 10.53333,
      "lat": 51.416672
    }
  },
  {
    "id": 6552054,
    "name": "Sollerup",
    "country": "DE",
    "coord": {
      "lon": 9.31667,
      "lat": 54.583302
    }
  },
  {
    "id": 2831532,
    "name": "Sollerup",
    "country": "DE",
    "coord": {
      "lon": 9.31667,
      "lat": 54.583328
    }
  },
  {
    "id": 6550474,
    "name": "Solkwitz",
    "country": "DE",
    "coord": {
      "lon": 11.6667,
      "lat": 50.700001
    }
  },
  {
    "id": 2831571,
    "name": "Solkwitz",
    "country": "DE",
    "coord": {
      "lon": 11.66667,
      "lat": 50.700001
    }
  },
  {
    "id": 6555760,
    "name": "Sölden",
    "country": "DE",
    "coord": {
      "lon": 7.81667,
      "lat": 47.9333
    }
  },
  {
    "id": 2831594,
    "name": "Solden",
    "country": "DE",
    "coord": {
      "lon": 7.81667,
      "lat": 47.933331
    }
  },
  {
    "id": 2831684,
    "name": "Sohland am Rotstein",
    "country": "DE",
    "coord": {
      "lon": 14.78333,
      "lat": 51.116669
    }
  },
  {
    "id": 6550336,
    "name": "Sitzendorf",
    "country": "DE",
    "coord": {
      "lon": 11.1333,
      "lat": 50.633301
    }
  },
  {
    "id": 2831787,
    "name": "Sitzendorf",
    "country": "DE",
    "coord": {
      "lon": 11.17215,
      "lat": 50.631821
    }
  },
  {
    "id": 6556691,
    "name": "Sinzing",
    "country": "DE",
    "coord": {
      "lon": 12.0333,
      "lat": 49
    }
  },
  {
    "id": 2831847,
    "name": "Sinzing",
    "country": "DE",
    "coord": {
      "lon": 12.03333,
      "lat": 49
    }
  },
  {
    "id": 6555635,
    "name": "Sinzheim",
    "country": "DE",
    "coord": {
      "lon": 8.16655,
      "lat": 48.763748
    }
  },
  {
    "id": 2831853,
    "name": "Sinzheim",
    "country": "DE",
    "coord": {
      "lon": 8.16667,
      "lat": 48.76667
    }
  },
  {
    "id": 2831888,
    "name": "Sinnersdorf",
    "country": "DE",
    "coord": {
      "lon": 6.81787,
      "lat": 51.024448
    }
  },
  {
    "id": 6551604,
    "name": "Simonsberg",
    "country": "DE",
    "coord": {
      "lon": 8.97693,
      "lat": 54.433552
    }
  },
  {
    "id": 2831985,
    "name": "Simonsberg",
    "country": "DE",
    "coord": {
      "lon": 8.97692,
      "lat": 54.433552
    }
  },
  {
    "id": 6554175,
    "name": "Simmern",
    "country": "DE",
    "coord": {
      "lon": 7.66667,
      "lat": 50.400002
    }
  },
  {
    "id": 2832012,
    "name": "Simmern",
    "country": "DE",
    "coord": {
      "lon": 7.66667,
      "lat": 50.400002
    }
  },
  {
    "id": 6553543,
    "name": "Simmertal",
    "country": "DE",
    "coord": {
      "lon": 7.51667,
      "lat": 49.8167
    }
  },
  {
    "id": 2832014,
    "name": "Simmertal",
    "country": "DE",
    "coord": {
      "lon": 7.51667,
      "lat": 49.816669
    }
  },
  {
    "id": 6556896,
    "name": "Simmelsdorf",
    "country": "DE",
    "coord": {
      "lon": 11.34047,
      "lat": 49.597359
    }
  },
  {
    "id": 2832025,
    "name": "Simmelsdorf",
    "country": "DE",
    "coord": {
      "lon": 11.33901,
      "lat": 49.597752
    }
  },
  {
    "id": 2832045,
    "name": "Simbach",
    "country": "DE",
    "coord": {
      "lon": 12.75,
      "lat": 48.566669
    }
  },
  {
    "id": 2832078,
    "name": "Sillenstede",
    "country": "DE",
    "coord": {
      "lon": 7.985,
      "lat": 53.574371
    }
  },
  {
    "id": 6557201,
    "name": "Sigmarszell",
    "country": "DE",
    "coord": {
      "lon": 9.76667,
      "lat": 47.583302
    }
  },
  {
    "id": 2832228,
    "name": "Sigmarszell",
    "country": "DE",
    "coord": {
      "lon": 9.76667,
      "lat": 47.583328
    }
  },
  {
    "id": 6552243,
    "name": "Siezbüttel",
    "country": "DE",
    "coord": {
      "lon": 9.44741,
      "lat": 54.052521
    }
  },
  {
    "id": 2832271,
    "name": "Siezbuttel",
    "country": "DE",
    "coord": {
      "lon": 9.44758,
      "lat": 54.052448
    }
  },
  {
    "id": 7602417,
    "name": "Sietow",
    "country": "DE",
    "coord": {
      "lon": 12.58333,
      "lat": 53.433331
    }
  },
  {
    "id": 2832312,
    "name": "Sietow",
    "country": "DE",
    "coord": {
      "lon": 12.55,
      "lat": 53.450001
    }
  },
  {
    "id": 6553340,
    "name": "Sierscheid",
    "country": "DE",
    "coord": {
      "lon": 6.91667,
      "lat": 50.450001
    }
  },
  {
    "id": 2832335,
    "name": "Sierscheid",
    "country": "DE",
    "coord": {
      "lon": 6.91744,
      "lat": 50.457069
    }
  },
  {
    "id": 6551663,
    "name": "Sierksdorf",
    "country": "DE",
    "coord": {
      "lon": 10.7667,
      "lat": 54.0667
    }
  },
  {
    "id": 2832338,
    "name": "Sierksdorf",
    "country": "DE",
    "coord": {
      "lon": 10.76667,
      "lat": 54.066669
    }
  },
  {
    "id": 6553642,
    "name": "Sienhachenbach",
    "country": "DE",
    "coord": {
      "lon": 7.48333,
      "lat": 49.700001
    }
  },
  {
    "id": 2832357,
    "name": "Sienhachenbach",
    "country": "DE",
    "coord": {
      "lon": 7.48333,
      "lat": 49.700001
    }
  },
  {
    "id": 6553641,
    "name": "Sien",
    "country": "DE",
    "coord": {
      "lon": 7.5,
      "lat": 49.700001
    }
  },
  {
    "id": 2832363,
    "name": "Sien",
    "country": "DE",
    "coord": {
      "lon": 7.5,
      "lat": 49.700001
    }
  },
  {
    "id": 2832423,
    "name": "Siegsdorf",
    "country": "DE",
    "coord": {
      "lon": 12.3,
      "lat": 47.933331
    }
  },
  {
    "id": 6551504,
    "name": "Siebeneichen",
    "country": "DE",
    "coord": {
      "lon": 10.6167,
      "lat": 53.516701
    }
  },
  {
    "id": 2832714,
    "name": "Siebeneichen",
    "country": "DE",
    "coord": {
      "lon": 10.61811,
      "lat": 53.510921
    }
  },
  {
    "id": 6553783,
    "name": "Siebenbach",
    "country": "DE",
    "coord": {
      "lon": 7.03333,
      "lat": 50.383301
    }
  },
  {
    "id": 2832736,
    "name": "Siebenbach",
    "country": "DE",
    "coord": {
      "lon": 7.03333,
      "lat": 50.383331
    }
  },
  {
    "id": 6549813,
    "name": "Sickerode",
    "country": "DE",
    "coord": {
      "lon": 10.1167,
      "lat": 51.25
    }
  },
  {
    "id": 2832772,
    "name": "Sickerode",
    "country": "DE",
    "coord": {
      "lon": 10.11667,
      "lat": 51.25
    }
  },
  {
    "id": 2832778,
    "name": "Sickenhausen",
    "country": "DE",
    "coord": {
      "lon": 9.18114,
      "lat": 48.53252
    }
  },
  {
    "id": 6549723,
    "name": "Sichau",
    "country": "DE",
    "coord": {
      "lon": 11.2167,
      "lat": 52.516701
    }
  },
  {
    "id": 2832803,
    "name": "Sichau",
    "country": "DE",
    "coord": {
      "lon": 11.22734,
      "lat": 52.51371
    }
  },
  {
    "id": 6548383,
    "name": "Severin",
    "country": "DE",
    "coord": {
      "lon": 11.7667,
      "lat": 53.5
    }
  },
  {
    "id": 2832851,
    "name": "Severin",
    "country": "DE",
    "coord": {
      "lon": 11.77185,
      "lat": 53.503471
    }
  },
  {
    "id": 6552349,
    "name": "Seulingen",
    "country": "DE",
    "coord": {
      "lon": 10.1667,
      "lat": 51.549999
    }
  },
  {
    "id": 2832867,
    "name": "Seulingen",
    "country": "DE",
    "coord": {
      "lon": 10.16667,
      "lat": 51.549999
    }
  },
  {
    "id": 6554794,
    "name": "Serrig",
    "country": "DE",
    "coord": {
      "lon": 6.57497,
      "lat": 49.57505
    }
  },
  {
    "id": 2832940,
    "name": "Serrig",
    "country": "DE",
    "coord": {
      "lon": 6.57454,
      "lat": 49.575191
    }
  },
  {
    "id": 6550407,
    "name": "Serba",
    "country": "DE",
    "coord": {
      "lon": 11.8167,
      "lat": 50.950001
    }
  },
  {
    "id": 2832968,
    "name": "Serba",
    "country": "DE",
    "coord": {
      "lon": 11.81667,
      "lat": 50.950001
    }
  },
  {
    "id": 6553640,
    "name": "Sensweiler",
    "country": "DE",
    "coord": {
      "lon": 7.19725,
      "lat": 49.775391
    }
  },
  {
    "id": 2832986,
    "name": "Sensweiler",
    "country": "DE",
    "coord": {
      "lon": 7.1969,
      "lat": 49.775391
    }
  },
  {
    "id": 6554603,
    "name": "Sengerich",
    "country": "DE",
    "coord": {
      "lon": 6.21667,
      "lat": 50.116699
    }
  },
  {
    "id": 2833047,
    "name": "Sengerich",
    "country": "DE",
    "coord": {
      "lon": 6.21667,
      "lat": 50.116669
    }
  },
  {
    "id": 6555070,
    "name": "Sembach",
    "country": "DE",
    "coord": {
      "lon": 7.85,
      "lat": 49.516701
    }
  },
  {
    "id": 2833126,
    "name": "Sembach",
    "country": "DE",
    "coord": {
      "lon": 7.85,
      "lat": 49.51667
    }
  },
  {
    "id": 2833138,
    "name": "Selters",
    "country": "DE",
    "coord": {
      "lon": 7.76667,
      "lat": 50.533329
    }
  },
  {
    "id": 2833139,
    "name": "Selters",
    "country": "DE",
    "coord": {
      "lon": 8.28953,
      "lat": 50.516811
    }
  },
  {
    "id": 6547796,
    "name": "Selpin",
    "country": "DE",
    "coord": {
      "lon": 12.5,
      "lat": 54
    }
  },
  {
    "id": 2833160,
    "name": "Selpin",
    "country": "DE",
    "coord": {
      "lon": 12.49575,
      "lat": 53.991119
    }
  },
  {
    "id": 2833184,
    "name": "Sellin",
    "country": "DE",
    "coord": {
      "lon": 11.6,
      "lat": 53.883331
    }
  },
  {
    "id": 6554602,
    "name": "Sellerich",
    "country": "DE",
    "coord": {
      "lon": 6.36667,
      "lat": 50.233299
    }
  },
  {
    "id": 2833196,
    "name": "Sellerich",
    "country": "DE",
    "coord": {
      "lon": 6.36667,
      "lat": 50.23333
    }
  },
  {
    "id": 6551994,
    "name": "Selk",
    "country": "DE",
    "coord": {
      "lon": 9.56667,
      "lat": 54.466702
    }
  },
  {
    "id": 2833228,
    "name": "Selk",
    "country": "DE",
    "coord": {
      "lon": 9.56667,
      "lat": 54.466671
    }
  },
  {
    "id": 6551776,
    "name": "Selent",
    "country": "DE",
    "coord": {
      "lon": 10.4276,
      "lat": 54.290401
    }
  },
  {
    "id": 2833259,
    "name": "Selent",
    "country": "DE",
    "coord": {
      "lon": 10.43333,
      "lat": 54.299999
    }
  },
  {
    "id": 6550406,
    "name": "Seitenroda",
    "country": "DE",
    "coord": {
      "lon": 11.6167,
      "lat": 50.799999
    }
  },
  {
    "id": 2833313,
    "name": "Seitenroda",
    "country": "DE",
    "coord": {
      "lon": 11.61667,
      "lat": 50.799999
    }
  },
  {
    "id": 6553446,
    "name": "Seifen",
    "country": "DE",
    "coord": {
      "lon": 7.56667,
      "lat": 50.633301
    }
  },
  {
    "id": 2833398,
    "name": "Seifen",
    "country": "DE",
    "coord": {
      "lon": 7.51667,
      "lat": 50.683331
    }
  },
  {
    "id": 2833399,
    "name": "Seifen",
    "country": "DE",
    "coord": {
      "lon": 7.56667,
      "lat": 50.633331
    }
  },
  {
    "id": 6552424,
    "name": "Sehlde",
    "country": "DE",
    "coord": {
      "lon": 10.2667,
      "lat": 52.049999
    }
  },
  {
    "id": 2833495,
    "name": "Sehlde",
    "country": "DE",
    "coord": {
      "lon": 10.26569,
      "lat": 52.038872
    }
  },
  {
    "id": 6558458,
    "name": "Seggebruch",
    "country": "DE",
    "coord": {
      "lon": 9.09427,
      "lat": 52.302299
    }
  },
  {
    "id": 2833521,
    "name": "Seggebruch",
    "country": "DE",
    "coord": {
      "lon": 9.09462,
      "lat": 52.300499
    }
  },
  {
    "id": 6549722,
    "name": "Seethen",
    "country": "DE",
    "coord": {
      "lon": 11.5667,
      "lat": 52.583302
    }
  },
  {
    "id": 2833570,
    "name": "Seethen",
    "country": "DE",
    "coord": {
      "lon": 11.56667,
      "lat": 52.583328
    }
  },
  {
    "id": 6551707,
    "name": "Seeth-Ekholt",
    "country": "DE",
    "coord": {
      "lon": 9.71667,
      "lat": 53.733299
    }
  },
  {
    "id": 2833571,
    "name": "Seeth-Ekholt",
    "country": "DE",
    "coord": {
      "lon": 9.73002,
      "lat": 53.741299
    }
  },
  {
    "id": 6551603,
    "name": "Seeth",
    "country": "DE",
    "coord": {
      "lon": 9.16667,
      "lat": 54.366699
    }
  },
  {
    "id": 2833575,
    "name": "Seeth",
    "country": "DE",
    "coord": {
      "lon": 9.16667,
      "lat": 54.366669
    }
  },
  {
    "id": 6551706,
    "name": "Seestermühe",
    "country": "DE",
    "coord": {
      "lon": 9.56667,
      "lat": 53.700001
    }
  },
  {
    "id": 2833582,
    "name": "Seestermuhe",
    "country": "DE",
    "coord": {
      "lon": 9.56667,
      "lat": 53.700001
    }
  },
  {
    "id": 6551697,
    "name": "Seester",
    "country": "DE",
    "coord": {
      "lon": 9.59798,
      "lat": 53.717831
    }
  },
  {
    "id": 2833585,
    "name": "Seester",
    "country": "DE",
    "coord": {
      "lon": 9.59798,
      "lat": 53.717831
    }
  },
  {
    "id": 6556444,
    "name": "Seeshaupt",
    "country": "DE",
    "coord": {
      "lon": 11.3,
      "lat": 47.833302
    }
  },
  {
    "id": 2833590,
    "name": "Seeshaupt",
    "country": "DE",
    "coord": {
      "lon": 11.30219,
      "lat": 47.82468
    }
  },
  {
    "id": 6553541,
    "name": "Seesbach",
    "country": "DE",
    "coord": {
      "lon": 7.55,
      "lat": 49.849998
    }
  },
  {
    "id": 2833600,
    "name": "Seesbach",
    "country": "DE",
    "coord": {
      "lon": 7.55,
      "lat": 49.849998
    }
  },
  {
    "id": 2833651,
    "name": "Seelow",
    "country": "DE",
    "coord": {
      "lon": 14.38128,
      "lat": 52.53392
    }
  },
  {
    "id": 6548569,
    "name": "Seelitz",
    "country": "DE",
    "coord": {
      "lon": 12.8167,
      "lat": 51.033298
    }
  },
  {
    "id": 2833654,
    "name": "Seelitz",
    "country": "DE",
    "coord": {
      "lon": 12.81667,
      "lat": 51.033329
    }
  },
  {
    "id": 6554100,
    "name": "Seelbach",
    "country": "DE",
    "coord": {
      "lon": 7.86667,
      "lat": 50.3167
    }
  },
  {
    "id": 2833702,
    "name": "Seelbach",
    "country": "DE",
    "coord": {
      "lon": 7.86667,
      "lat": 50.316669
    }
  },
  {
    "id": 6555804,
    "name": "Seelbach",
    "country": "DE",
    "coord": {
      "lon": 7.95,
      "lat": 48.3167
    }
  },
  {
    "id": 2833704,
    "name": "Seelbach",
    "country": "DE",
    "coord": {
      "lon": 7.95,
      "lat": 48.316669
    }
  },
  {
    "id": 6548222,
    "name": "Seehof",
    "country": "DE",
    "coord": {
      "lon": 11.43256,
      "lat": 53.69249
    }
  },
  {
    "id": 2833754,
    "name": "Seehof",
    "country": "DE",
    "coord": {
      "lon": 11.43256,
      "lat": 53.69249
    }
  },
  {
    "id": 2833800,
    "name": "Seehausen",
    "country": "DE",
    "coord": {
      "lon": 11.75,
      "lat": 52.883331
    }
  },
  {
    "id": 2833801,
    "name": "Seehausen",
    "country": "DE",
    "coord": {
      "lon": 11.3,
      "lat": 52.099998
    }
  },
  {
    "id": 6557230,
    "name": "Seeg",
    "country": "DE",
    "coord": {
      "lon": 10.6085,
      "lat": 47.654301
    }
  },
  {
    "id": 2833849,
    "name": "Seeg",
    "country": "DE",
    "coord": {
      "lon": 10.6,
      "lat": 47.650002
    }
  },
  {
    "id": 6556390,
    "name": "Seefeld",
    "country": "DE",
    "coord": {
      "lon": 11.2,
      "lat": 48.033298
    }
  },
  {
    "id": 2833866,
    "name": "Seefeld",
    "country": "DE",
    "coord": {
      "lon": 11.21395,
      "lat": 48.035049
    }
  },
  {
    "id": 6552135,
    "name": "Seedorf",
    "country": "DE",
    "coord": {
      "lon": 10.4167,
      "lat": 54.049999
    }
  },
  {
    "id": 2833878,
    "name": "Seedorf",
    "country": "DE",
    "coord": {
      "lon": 10.41667,
      "lat": 54.049999
    }
  },
  {
    "id": 6551502,
    "name": "Seedorf",
    "country": "DE",
    "coord": {
      "lon": 10.86601,
      "lat": 53.61964
    }
  },
  {
    "id": 2833883,
    "name": "Seedorf",
    "country": "DE",
    "coord": {
      "lon": 10.86599,
      "lat": 53.619701
    }
  },
  {
    "id": 6552750,
    "name": "Seedorf",
    "country": "DE",
    "coord": {
      "lon": 9.23333,
      "lat": 53.349998
    }
  },
  {
    "id": 2833884,
    "name": "Seedorf",
    "country": "DE",
    "coord": {
      "lon": 9.23333,
      "lat": 53.349998
    }
  },
  {
    "id": 2833893,
    "name": "Seedorf",
    "country": "DE",
    "coord": {
      "lon": 8.48993,
      "lat": 48.249081
    }
  },
  {
    "id": 6552348,
    "name": "Seeburg",
    "country": "DE",
    "coord": {
      "lon": 10.15,
      "lat": 51.5667
    }
  },
  {
    "id": 2833903,
    "name": "Seeburg",
    "country": "DE",
    "coord": {
      "lon": 10.15,
      "lat": 51.566669
    }
  },
  {
    "id": 2833988,
    "name": "Seebad Heringsdorf",
    "country": "DE",
    "coord": {
      "lon": 14.16667,
      "lat": 53.966671
    }
  },
  {
    "id": 2833989,
    "name": "Seebad Bansin",
    "country": "DE",
    "coord": {
      "lon": 14.15,
      "lat": 53.966671
    }
  },
  {
    "id": 2834020,
    "name": "Seebach",
    "country": "DE",
    "coord": {
      "lon": 10.51667,
      "lat": 51.166672
    }
  },
  {
    "id": 6549895,
    "name": "Seebach",
    "country": "DE",
    "coord": {
      "lon": 10.4335,
      "lat": 50.907101
    }
  },
  {
    "id": 2834021,
    "name": "Seebach",
    "country": "DE",
    "coord": {
      "lon": 10.41667,
      "lat": 50.916672
    }
  },
  {
    "id": 2834102,
    "name": "Sebnitz",
    "country": "DE",
    "coord": {
      "lon": 14.27579,
      "lat": 50.975399
    }
  },
  {
    "id": 6549812,
    "name": "Schwobfeld",
    "country": "DE",
    "coord": {
      "lon": 10.1,
      "lat": 51.283298
    }
  },
  {
    "id": 2834146,
    "name": "Schwobfeld",
    "country": "DE",
    "coord": {
      "lon": 10.1,
      "lat": 51.283329
    }
  },
  {
    "id": 6556303,
    "name": "Schwindegg",
    "country": "DE",
    "coord": {
      "lon": 12.25,
      "lat": 48.266701
    }
  },
  {
    "id": 2834183,
    "name": "Schwindegg",
    "country": "DE",
    "coord": {
      "lon": 12.25,
      "lat": 48.26667
    }
  },
  {
    "id": 6550154,
    "name": "Schwerstedt",
    "country": "DE",
    "coord": {
      "lon": 10.9167,
      "lat": 51.150002
    }
  },
  {
    "id": 2834266,
    "name": "Schwerstedt",
    "country": "DE",
    "coord": {
      "lon": 10.91667,
      "lat": 51.150002
    }
  },
  {
    "id": 6547574,
    "name": "Schwerin",
    "country": "DE",
    "coord": {
      "lon": 13.6333,
      "lat": 52.150002
    }
  },
  {
    "id": 2834284,
    "name": "Schwerin",
    "country": "DE",
    "coord": {
      "lon": 13.63333,
      "lat": 52.150002
    }
  },
  {
    "id": 6553638,
    "name": "Schwerbach",
    "country": "DE",
    "coord": {
      "lon": 7.35,
      "lat": 49.900002
    }
  },
  {
    "id": 2834291,
    "name": "Schwerbach",
    "country": "DE",
    "coord": {
      "lon": 7.35,
      "lat": 49.900002
    }
  },
  {
    "id": 6557167,
    "name": "Schwenningen",
    "country": "DE",
    "coord": {
      "lon": 10.65,
      "lat": 48.650002
    }
  },
  {
    "id": 2834312,
    "name": "Schwenningen",
    "country": "DE",
    "coord": {
      "lon": 10.65,
      "lat": 48.650002
    }
  },
  {
    "id": 6556026,
    "name": "Schwendi",
    "country": "DE",
    "coord": {
      "lon": 9.96667,
      "lat": 48.1833
    }
  },
  {
    "id": 2834334,
    "name": "Schwendi",
    "country": "DE",
    "coord": {
      "lon": 9.96667,
      "lat": 48.183331
    }
  },
  {
    "id": 6554984,
    "name": "Schweisweiler",
    "country": "DE",
    "coord": {
      "lon": 7.81667,
      "lat": 49.583302
    }
  },
  {
    "id": 2834417,
    "name": "Schweisweiler",
    "country": "DE",
    "coord": {
      "lon": 7.81667,
      "lat": 49.583328
    }
  },
  {
    "id": 6553014,
    "name": "Schweindorf",
    "country": "DE",
    "coord": {
      "lon": 7.47311,
      "lat": 53.600201
    }
  },
  {
    "id": 2834519,
    "name": "Schweindorf",
    "country": "DE",
    "coord": {
      "lon": 7.46667,
      "lat": 53.599998
    }
  },
  {
    "id": 6554099,
    "name": "Schweighausen",
    "country": "DE",
    "coord": {
      "lon": 7.75,
      "lat": 50.283298
    }
  },
  {
    "id": 2834569,
    "name": "Schweighausen",
    "country": "DE",
    "coord": {
      "lon": 7.75,
      "lat": 50.283329
    }
  },
  {
    "id": 6555060,
    "name": "Schwedelbach",
    "country": "DE",
    "coord": {
      "lon": 7.6,
      "lat": 49.5
    }
  },
  {
    "id": 2834646,
    "name": "Schwedelbach",
    "country": "DE",
    "coord": {
      "lon": 7.6,
      "lat": 49.5
    }
  },
  {
    "id": 6557069,
    "name": "Schwebheim",
    "country": "DE",
    "coord": {
      "lon": 10.25,
      "lat": 49.983299
    }
  },
  {
    "id": 2834651,
    "name": "Schwebheim",
    "country": "DE",
    "coord": {
      "lon": 10.25,
      "lat": 49.98333
    }
  },
  {
    "id": 6559260,
    "name": "Schwasdorf",
    "country": "DE",
    "coord": {
      "lon": 12.58877,
      "lat": 53.872478
    }
  },
  {
    "id": 2834669,
    "name": "Schwasdorf",
    "country": "DE",
    "coord": {
      "lon": 12.63333,
      "lat": 53.900002
    }
  },
  {
    "id": 6553567,
    "name": "Schwarzerden",
    "country": "DE",
    "coord": {
      "lon": 7.51667,
      "lat": 49.849998
    }
  },
  {
    "id": 2834843,
    "name": "Schwarzerden",
    "country": "DE",
    "coord": {
      "lon": 7.51667,
      "lat": 49.849998
    }
  },
  {
    "id": 2834963,
    "name": "Schwarzenborn",
    "country": "DE",
    "coord": {
      "lon": 9.45,
      "lat": 50.916672
    }
  },
  {
    "id": 6554373,
    "name": "Schwarzenborn",
    "country": "DE",
    "coord": {
      "lon": 6.71667,
      "lat": 50.033298
    }
  },
  {
    "id": 2834966,
    "name": "Schwarzenborn",
    "country": "DE",
    "coord": {
      "lon": 6.71667,
      "lat": 50.033329
    }
  },
  {
    "id": 2835034,
    "name": "Schwarzenbach",
    "country": "DE",
    "coord": {
      "lon": 12.38005,
      "lat": 49.83876
    }
  },
  {
    "id": 6556664,
    "name": "Schwarzenbach",
    "country": "DE",
    "coord": {
      "lon": 12,
      "lat": 49.733299
    }
  },
  {
    "id": 2835035,
    "name": "Schwarzenbach",
    "country": "DE",
    "coord": {
      "lon": 12,
      "lat": 49.73333
    }
  },
  {
    "id": 6550518,
    "name": "Schwarzbach",
    "country": "DE",
    "coord": {
      "lon": 11.8833,
      "lat": 50.799999
    }
  },
  {
    "id": 2835152,
    "name": "Schwarzbach",
    "country": "DE",
    "coord": {
      "lon": 11.88333,
      "lat": 50.799999
    }
  },
  {
    "id": 6556485,
    "name": "Spiegelau",
    "country": "DE",
    "coord": {
      "lon": 13.3643,
      "lat": 48.931301
    }
  },
  {
    "id": 2835164,
    "name": "Spiegelau",
    "country": "DE",
    "coord": {
      "lon": 13.36229,
      "lat": 48.915169
    }
  },
  {
    "id": 2835184,
    "name": "Schwarzach",
    "country": "DE",
    "coord": {
      "lon": 12.81667,
      "lat": 48.916672
    }
  },
  {
    "id": 2835185,
    "name": "Schwarzach",
    "country": "DE",
    "coord": {
      "lon": 8.05,
      "lat": 48.75
    }
  },
  {
    "id": 2835193,
    "name": "Schwarza",
    "country": "DE",
    "coord": {
      "lon": 11.32433,
      "lat": 50.853859
    }
  },
  {
    "id": 6548093,
    "name": "Schwarz",
    "country": "DE",
    "coord": {
      "lon": 12.7833,
      "lat": 53.216702
    }
  },
  {
    "id": 2835196,
    "name": "Schwarz",
    "country": "DE",
    "coord": {
      "lon": 12.78465,
      "lat": 53.224121
    }
  },
  {
    "id": 6552778,
    "name": "Schwarmstedt",
    "country": "DE",
    "coord": {
      "lon": 9.6254,
      "lat": 52.68
    }
  },
  {
    "id": 2835220,
    "name": "Schwarmstedt",
    "country": "DE",
    "coord": {
      "lon": 9.61767,
      "lat": 52.67794
    }
  },
  {
    "id": 6555354,
    "name": "Schwanheim",
    "country": "DE",
    "coord": {
      "lon": 7.88333,
      "lat": 49.166698
    }
  },
  {
    "id": 2835248,
    "name": "Schwanheim",
    "country": "DE",
    "coord": {
      "lon": 7.88333,
      "lat": 49.166672
    }
  },
  {
    "id": 6557229,
    "name": "Schwangau",
    "country": "DE",
    "coord": {
      "lon": 10.7721,
      "lat": 47.560398
    }
  },
  {
    "id": 2835255,
    "name": "Schwangau",
    "country": "DE",
    "coord": {
      "lon": 10.73333,
      "lat": 47.583328
    }
  },
  {
    "id": 6553239,
    "name": "Schwalmtal",
    "country": "DE",
    "coord": {
      "lon": 9.3,
      "lat": 50.6833
    }
  },
  {
    "id": 2835343,
    "name": "Schwalmtal",
    "country": "DE",
    "coord": {
      "lon": 9.21667,
      "lat": 50.683331
    }
  },
  {
    "id": 6553967,
    "name": "Schwall",
    "country": "DE",
    "coord": {
      "lon": 7.55,
      "lat": 50.150002
    }
  },
  {
    "id": 2835356,
    "name": "Schwall",
    "country": "DE",
    "coord": {
      "lon": 7.55,
      "lat": 50.150002
    }
  },
  {
    "id": 2835380,
    "name": "Schwalbach",
    "country": "DE",
    "coord": {
      "lon": 8.46943,
      "lat": 50.496719
    }
  },
  {
    "id": 2835381,
    "name": "Schwalbach am Taunus",
    "country": "DE",
    "coord": {
      "lon": 8.53333,
      "lat": 50.150002
    }
  },
  {
    "id": 6556443,
    "name": "Schwabsoien",
    "country": "DE",
    "coord": {
      "lon": 10.8333,
      "lat": 47.833302
    }
  },
  {
    "id": 2835470,
    "name": "Schwabsoien",
    "country": "DE",
    "coord": {
      "lon": 10.83333,
      "lat": 47.833328
    }
  },
  {
    "id": 6556141,
    "name": "Schwabhausen",
    "country": "DE",
    "coord": {
      "lon": 11.35,
      "lat": 48.299999
    }
  },
  {
    "id": 2835491,
    "name": "Schwabhausen",
    "country": "DE",
    "coord": {
      "lon": 11.35574,
      "lat": 48.303181
    }
  },
  {
    "id": 6550099,
    "name": "Schwabhausen",
    "country": "DE",
    "coord": {
      "lon": 10.7333,
      "lat": 50.883301
    }
  },
  {
    "id": 2835494,
    "name": "Schwabhausen",
    "country": "DE",
    "coord": {
      "lon": 10.73333,
      "lat": 50.883331
    }
  },
  {
    "id": 2835512,
    "name": "Schwabenheim",
    "country": "DE",
    "coord": {
      "lon": 8.09417,
      "lat": 49.932781
    }
  },
  {
    "id": 6550517,
    "name": "Schwaara",
    "country": "DE",
    "coord": {
      "lon": 12.1333,
      "lat": 50.900002
    }
  },
  {
    "id": 2835540,
    "name": "Schwaara",
    "country": "DE",
    "coord": {
      "lon": 12.13333,
      "lat": 50.900002
    }
  },
  {
    "id": 6548967,
    "name": "Schützberg",
    "country": "DE",
    "coord": {
      "lon": 12.8333,
      "lat": 51.783298
    }
  },
  {
    "id": 2835581,
    "name": "Schutzberg",
    "country": "DE",
    "coord": {
      "lon": 12.82413,
      "lat": 51.790249
    }
  },
  {
    "id": 6555801,
    "name": "Schuttertal",
    "country": "DE",
    "coord": {
      "lon": 7.95,
      "lat": 48.233299
    }
  },
  {
    "id": 2835597,
    "name": "Schuttertal",
    "country": "DE",
    "coord": {
      "lon": 7.95,
      "lat": 48.26667
    }
  },
  {
    "id": 6551500,
    "name": "Schürensöhlen",
    "country": "DE",
    "coord": {
      "lon": 10.4833,
      "lat": 53.766701
    }
  },
  {
    "id": 2835674,
    "name": "Schurensohlen",
    "country": "DE",
    "coord": {
      "lon": 10.48333,
      "lat": 53.76667
    }
  },
  {
    "id": 2835944,
    "name": "Schulp",
    "country": "DE",
    "coord": {
      "lon": 9.63333,
      "lat": 54.26667
    }
  },
  {
    "id": 6551377,
    "name": "Schülp",
    "country": "DE",
    "coord": {
      "lon": 8.93333,
      "lat": 54.25
    }
  },
  {
    "id": 2835945,
    "name": "Schulp",
    "country": "DE",
    "coord": {
      "lon": 8.93333,
      "lat": 54.25
    }
  },
  {
    "id": 6551501,
    "name": "Schulendorf",
    "country": "DE",
    "coord": {
      "lon": 10.5667,
      "lat": 53.466702
    }
  },
  {
    "id": 2835972,
    "name": "Schulendorf",
    "country": "DE",
    "coord": {
      "lon": 10.56104,
      "lat": 53.473228
    }
  },
  {
    "id": 6551993,
    "name": "Schuby",
    "country": "DE",
    "coord": {
      "lon": 9.48333,
      "lat": 54.516701
    }
  },
  {
    "id": 2836031,
    "name": "Schuby",
    "country": "DE",
    "coord": {
      "lon": 9.48333,
      "lat": 54.51667
    }
  },
  {
    "id": 6551376,
    "name": "Schrum",
    "country": "DE",
    "coord": {
      "lon": 9.25,
      "lat": 54.1833
    }
  },
  {
    "id": 2836039,
    "name": "Schrum",
    "country": "DE",
    "coord": {
      "lon": 9.25,
      "lat": 54.183331
    }
  },
  {
    "id": 6556640,
    "name": "Schorndorf",
    "country": "DE",
    "coord": {
      "lon": 12.6,
      "lat": 49.166698
    }
  },
  {
    "id": 2836319,
    "name": "Schorndorf",
    "country": "DE",
    "coord": {
      "lon": 12.6,
      "lat": 49.166672
    }
  },
  {
    "id": 6550405,
    "name": "Schöps",
    "country": "DE",
    "coord": {
      "lon": 11.6,
      "lat": 50.833302
    }
  },
  {
    "id": 2836387,
    "name": "Schops",
    "country": "DE",
    "coord": {
      "lon": 11.6,
      "lat": 50.833328
    }
  },
  {
    "id": 6555725,
    "name": "Schopfloch",
    "country": "DE",
    "coord": {
      "lon": 8.55133,
      "lat": 48.454708
    }
  },
  {
    "id": 2836409,
    "name": "Schopfloch",
    "country": "DE",
    "coord": {
      "lon": 8.55131,
      "lat": 48.454769
    }
  },
  {
    "id": 6548479,
    "name": "Schönwalde",
    "country": "DE",
    "coord": {
      "lon": 13.9,
      "lat": 53.533298
    }
  },
  {
    "id": 2836442,
    "name": "Schonwalde",
    "country": "DE",
    "coord": {
      "lon": 13.9,
      "lat": 53.533329
    }
  },
  {
    "id": 2836450,
    "name": "Schonwald",
    "country": "DE",
    "coord": {
      "lon": 12.1,
      "lat": 50.200001
    }
  },
  {
    "id": 2836451,
    "name": "Schonwald im Schwarzwald",
    "country": "DE",
    "coord": {
      "lon": 8.2,
      "lat": 48.099998
    }
  },
  {
    "id": 6556639,
    "name": "Schönthal",
    "country": "DE",
    "coord": {
      "lon": 12.6,
      "lat": 49.349998
    }
  },
  {
    "id": 2836460,
    "name": "Schonthal",
    "country": "DE",
    "coord": {
      "lon": 12.6,
      "lat": 49.349998
    }
  },
  {
    "id": 2836480,
    "name": "Schonsee",
    "country": "DE",
    "coord": {
      "lon": 12.55,
      "lat": 49.51667
    }
  },
  {
    "id": 2836543,
    "name": "Schoningen",
    "country": "DE",
    "coord": {
      "lon": 10.96745,
      "lat": 52.13802
    }
  },
  {
    "id": 6548591,
    "name": "Schönheide",
    "country": "DE",
    "coord": {
      "lon": 12.5057,
      "lat": 50.5037
    }
  },
  {
    "id": 2836581,
    "name": "Schoenheide",
    "country": "DE",
    "coord": {
      "lon": 12.52158,
      "lat": 50.504581
    }
  },
  {
    "id": 6548021,
    "name": "Schönhausen",
    "country": "DE",
    "coord": {
      "lon": 13.7,
      "lat": 53.549999
    }
  },
  {
    "id": 2836586,
    "name": "Schonhausen",
    "country": "DE",
    "coord": {
      "lon": 13.7,
      "lat": 53.549999
    }
  },
  {
    "id": 6549811,
    "name": "Schönhagen",
    "country": "DE",
    "coord": {
      "lon": 10.0167,
      "lat": 51.333302
    }
  },
  {
    "id": 2836605,
    "name": "Schonhagen",
    "country": "DE",
    "coord": {
      "lon": 10.01667,
      "lat": 51.333328
    }
  },
  {
    "id": 6550404,
    "name": "Schöngleina",
    "country": "DE",
    "coord": {
      "lon": 11.7333,
      "lat": 50.916698
    }
  },
  {
    "id": 2836614,
    "name": "Schongleina",
    "country": "DE",
    "coord": {
      "lon": 11.73333,
      "lat": 50.916672
    }
  },
  {
    "id": 6547852,
    "name": "Schönfeld",
    "country": "DE",
    "coord": {
      "lon": 12.9667,
      "lat": 53.849998
    }
  },
  {
    "id": 2836648,
    "name": "Schonfeld",
    "country": "DE",
    "coord": {
      "lon": 12.96667,
      "lat": 53.849998
    }
  },
  {
    "id": 6547749,
    "name": "Schönfeld",
    "country": "DE",
    "coord": {
      "lon": 13.9833,
      "lat": 53.416698
    }
  },
  {
    "id": 2836650,
    "name": "Schonfeld",
    "country": "DE",
    "coord": {
      "lon": 13.98333,
      "lat": 53.416672
    }
  },
  {
    "id": 6548660,
    "name": "Schönfeld",
    "country": "DE",
    "coord": {
      "lon": 13.7,
      "lat": 51.299999
    }
  },
  {
    "id": 2836658,
    "name": "Schonfeld",
    "country": "DE",
    "coord": {
      "lon": 13.7,
      "lat": 51.299999
    }
  },
  {
    "id": 6547622,
    "name": "Schönermark",
    "country": "DE",
    "coord": {
      "lon": 13.1167,
      "lat": 53
    }
  },
  {
    "id": 2836697,
    "name": "Schonermark",
    "country": "DE",
    "coord": {
      "lon": 13.12016,
      "lat": 53.006989
    }
  },
  {
    "id": 6555892,
    "name": "Schönenberg",
    "country": "DE",
    "coord": {
      "lon": 7.88333,
      "lat": 47.783298
    }
  },
  {
    "id": 2836725,
    "name": "Schonenberg",
    "country": "DE",
    "coord": {
      "lon": 7.88248,
      "lat": 47.793781
    }
  },
  {
    "id": 2836772,
    "name": "Schoneck",
    "country": "DE",
    "coord": {
      "lon": 12.31667,
      "lat": 50.383331
    }
  },
  {
    "id": 6547748,
    "name": "Schöneberg",
    "country": "DE",
    "coord": {
      "lon": 14.1333,
      "lat": 53
    }
  },
  {
    "id": 2836791,
    "name": "Schoneberg",
    "country": "DE",
    "coord": {
      "lon": 14.14258,
      "lat": 53.00853
    }
  },
  {
    "id": 6553443,
    "name": "Schöneberg",
    "country": "DE",
    "coord": {
      "lon": 7.6,
      "lat": 50.666698
    }
  },
  {
    "id": 2836793,
    "name": "Schoneberg",
    "country": "DE",
    "coord": {
      "lon": 7.6,
      "lat": 50.666672
    }
  },
  {
    "id": 6553538,
    "name": "Schöneberg",
    "country": "DE",
    "coord": {
      "lon": 7.75,
      "lat": 49.916698
    }
  },
  {
    "id": 2836795,
    "name": "Schoneberg",
    "country": "DE",
    "coord": {
      "lon": 7.75,
      "lat": 49.916672
    }
  },
  {
    "id": 6550472,
    "name": "Schöndorf",
    "country": "DE",
    "coord": {
      "lon": 11.7,
      "lat": 50.616699
    }
  },
  {
    "id": 2836820,
    "name": "Schondorf",
    "country": "DE",
    "coord": {
      "lon": 11.69477,
      "lat": 50.617451
    }
  },
  {
    "id": 6554098,
    "name": "Schönborn",
    "country": "DE",
    "coord": {
      "lon": 7.98333,
      "lat": 50.299999
    }
  },
  {
    "id": 2836913,
    "name": "Schonborn",
    "country": "DE",
    "coord": {
      "lon": 7.98333,
      "lat": 50.299999
    }
  },
  {
    "id": 6548509,
    "name": "Schönberg",
    "country": "DE",
    "coord": {
      "lon": 12.5,
      "lat": 50.866699
    }
  },
  {
    "id": 2836952,
    "name": "Schonberg",
    "country": "DE",
    "coord": {
      "lon": 12.5,
      "lat": 50.866669
    }
  },
  {
    "id": 6554372,
    "name": "Schönberg",
    "country": "DE",
    "coord": {
      "lon": 6.91667,
      "lat": 49.766701
    }
  },
  {
    "id": 2836958,
    "name": "Schonberg",
    "country": "DE",
    "coord": {
      "lon": 6.91667,
      "lat": 49.76667
    }
  },
  {
    "id": 6556302,
    "name": "Schönberg",
    "country": "DE",
    "coord": {
      "lon": 12.4333,
      "lat": 48.333302
    }
  },
  {
    "id": 2836968,
    "name": "Schonberg",
    "country": "DE",
    "coord": {
      "lon": 12.43333,
      "lat": 48.333328
    }
  },
  {
    "id": 6548688,
    "name": "Schönbach",
    "country": "DE",
    "coord": {
      "lon": 14.5667,
      "lat": 51.0667
    }
  },
  {
    "id": 2837022,
    "name": "Schonbach",
    "country": "DE",
    "coord": {
      "lon": 14.56667,
      "lat": 51.066669
    }
  },
  {
    "id": 2837041,
    "name": "Schonau-Berzdorf",
    "country": "DE",
    "coord": {
      "lon": 14.9,
      "lat": 51.066669
    }
  },
  {
    "id": 2837062,
    "name": "Schonau",
    "country": "DE",
    "coord": {
      "lon": 9.71667,
      "lat": 50.083328
    }
  },
  {
    "id": 2837064,
    "name": "Schonau",
    "country": "DE",
    "coord": {
      "lon": 8.80917,
      "lat": 49.435558
    }
  },
  {
    "id": 2837034,
    "name": "Schönau",
    "country": "DE",
    "coord": {
      "lon": 12.88333,
      "lat": 48.48333
    }
  },
  {
    "id": 2837072,
    "name": "Schonau",
    "country": "DE",
    "coord": {
      "lon": 12.85,
      "lat": 48.48333
    }
  },
  {
    "id": 2837085,
    "name": "Schoenau am Koenigssee",
    "country": "DE",
    "coord": {
      "lon": 12.98704,
      "lat": 47.600552
    }
  },
  {
    "id": 6550516,
    "name": "Schömberg",
    "country": "DE",
    "coord": {
      "lon": 12.0167,
      "lat": 50.766701
    }
  },
  {
    "id": 2837114,
    "name": "Schomberg",
    "country": "DE",
    "coord": {
      "lon": 12.01667,
      "lat": 50.76667
    }
  },
  {
    "id": 2837117,
    "name": "Schomberg",
    "country": "DE",
    "coord": {
      "lon": 8.75949,
      "lat": 48.209969
    }
  },
  {
    "id": 2837134,
    "name": "Schollnach",
    "country": "DE",
    "coord": {
      "lon": 13.18333,
      "lat": 48.75
    }
  },
  {
    "id": 2837136,
    "name": "Schollkrippen",
    "country": "DE",
    "coord": {
      "lon": 9.23333,
      "lat": 50.066669
    }
  },
  {
    "id": 6549547,
    "name": "Schollene",
    "country": "DE",
    "coord": {
      "lon": 12.2167,
      "lat": 52.6833
    }
  },
  {
    "id": 2837155,
    "name": "Schollene",
    "country": "DE",
    "coord": {
      "lon": 12.21869,
      "lat": 52.676949
    }
  },
  {
    "id": 6557049,
    "name": "Schollbrunn",
    "country": "DE",
    "coord": {
      "lon": 9.46389,
      "lat": 49.834999
    }
  },
  {
    "id": 2837159,
    "name": "Schollbrunn",
    "country": "DE",
    "coord": {
      "lon": 9.46389,
      "lat": 49.834999
    }
  },
  {
    "id": 2837225,
    "name": "Schochwitz",
    "country": "DE",
    "coord": {
      "lon": 11.75,
      "lat": 51.533329
    }
  },
  {
    "id": 2837236,
    "name": "Schobull",
    "country": "DE",
    "coord": {
      "lon": 9.01667,
      "lat": 54.5
    }
  },
  {
    "id": 6555991,
    "name": "Schnürpflingen",
    "country": "DE",
    "coord": {
      "lon": 10,
      "lat": 48.266701
    }
  },
  {
    "id": 2837250,
    "name": "Schnurpflingen",
    "country": "DE",
    "coord": {
      "lon": 9.99292,
      "lat": 48.2728
    }
  },
  {
    "id": 6556853,
    "name": "Schnelldorf",
    "country": "DE",
    "coord": {
      "lon": 10.2321,
      "lat": 49.170502
    }
  },
  {
    "id": 2837368,
    "name": "Schnelldorf",
    "country": "DE",
    "coord": {
      "lon": 10.18333,
      "lat": 49.200001
    }
  },
  {
    "id": 6556115,
    "name": "Schneizlreuth",
    "country": "DE",
    "coord": {
      "lon": 12.8,
      "lat": 47.6833
    }
  },
  {
    "id": 2837375,
    "name": "Schneizlreuth",
    "country": "DE",
    "coord": {
      "lon": 12.8,
      "lat": 47.683331
    }
  },
  {
    "id": 6556810,
    "name": "Schneckenlohe",
    "country": "DE",
    "coord": {
      "lon": 11.2,
      "lat": 50.216702
    }
  },
  {
    "id": 2837507,
    "name": "Schneckenlohe",
    "country": "DE",
    "coord": {
      "lon": 11.19395,
      "lat": 50.211842
    }
  },
  {
    "id": 2837569,
    "name": "Schnaittenbach",
    "country": "DE",
    "coord": {
      "lon": 12.01667,
      "lat": 49.549999
    }
  },
  {
    "id": 6550471,
    "name": "Schmorda",
    "country": "DE",
    "coord": {
      "lon": 11.58637,
      "lat": 50.644131
    }
  },
  {
    "id": 2837638,
    "name": "Schmorda",
    "country": "DE",
    "coord": {
      "lon": 11.58646,
      "lat": 50.644779
    }
  },
  {
    "id": 6553181,
    "name": "Schmitten",
    "country": "DE",
    "coord": {
      "lon": 8.4608,
      "lat": 50.2868
    }
  },
  {
    "id": 2837706,
    "name": "Schmitten",
    "country": "DE",
    "coord": {
      "lon": 8.45,
      "lat": 50.26667
    }
  },
  {
    "id": 7602411,
    "name": "Schmißberg",
    "country": "DE",
    "coord": {
      "lon": 7.2,
      "lat": 49.666672
    }
  },
  {
    "id": 2837724,
    "name": "Schmissberg",
    "country": "DE",
    "coord": {
      "lon": 7.2,
      "lat": 49.666672
    }
  },
  {
    "id": 6550220,
    "name": "Schmiedefeld am Rennsteig",
    "country": "DE",
    "coord": {
      "lon": 10.8333,
      "lat": 50.616699
    }
  },
  {
    "id": 2837777,
    "name": "Schmiedefeld am Rennsteig",
    "country": "DE",
    "coord": {
      "lon": 10.83333,
      "lat": 50.616669
    }
  },
  {
    "id": 6548710,
    "name": "Schmiedeberg",
    "country": "DE",
    "coord": {
      "lon": 13.6833,
      "lat": 50.849998
    }
  },
  {
    "id": 2837788,
    "name": "Schmiedeberg",
    "country": "DE",
    "coord": {
      "lon": 13.67622,
      "lat": 50.836441
    }
  },
  {
    "id": 6552133,
    "name": "Schmalfeld",
    "country": "DE",
    "coord": {
      "lon": 9.96667,
      "lat": 53.883301
    }
  },
  {
    "id": 2838075,
    "name": "Schmalfeld",
    "country": "DE",
    "coord": {
      "lon": 9.96667,
      "lat": 53.883331
    }
  },
  {
    "id": 6553536,
    "name": "Schloßböckelheim",
    "country": "DE",
    "coord": {
      "lon": 7.75,
      "lat": 49.799999
    }
  },
  {
    "id": 2838316,
    "name": "Schlossbockelheim",
    "country": "DE",
    "coord": {
      "lon": 7.75,
      "lat": 49.799999
    }
  },
  {
    "id": 6548092,
    "name": "Schloen",
    "country": "DE",
    "coord": {
      "lon": 12.8167,
      "lat": 53.549999
    }
  },
  {
    "id": 2838442,
    "name": "Schloen",
    "country": "DE",
    "coord": {
      "lon": 12.81667,
      "lat": 53.549999
    }
  },
  {
    "id": 6550403,
    "name": "Schlöben",
    "country": "DE",
    "coord": {
      "lon": 11.7,
      "lat": 50.900002
    }
  },
  {
    "id": 2838453,
    "name": "Schloben",
    "country": "DE",
    "coord": {
      "lon": 11.7,
      "lat": 50.900002
    }
  },
  {
    "id": 2838502,
    "name": "Schliersee",
    "country": "DE",
    "coord": {
      "lon": 11.86667,
      "lat": 47.73333
    }
  },
  {
    "id": 6556071,
    "name": "Schlier",
    "country": "DE",
    "coord": {
      "lon": 9.6669,
      "lat": 47.771801
    }
  },
  {
    "id": 2838531,
    "name": "Schlier",
    "country": "DE",
    "coord": {
      "lon": 9.66667,
      "lat": 47.76667
    }
  },
  {
    "id": 6548141,
    "name": "Schlemmin",
    "country": "DE",
    "coord": {
      "lon": 12.68281,
      "lat": 54.222439
    }
  },
  {
    "id": 2838665,
    "name": "Schlemmin",
    "country": "DE",
    "coord": {
      "lon": 12.68277,
      "lat": 54.222351
    }
  },
  {
    "id": 6548648,
    "name": "Schleife",
    "country": "DE",
    "coord": {
      "lon": 14.5333,
      "lat": 51.533298
    }
  },
  {
    "id": 2838725,
    "name": "Schleife",
    "country": "DE",
    "coord": {
      "lon": 14.53333,
      "lat": 51.533329
    }
  },
  {
    "id": 2838744,
    "name": "Schleiden",
    "country": "DE",
    "coord": {
      "lon": 6.47696,
      "lat": 50.529469
    }
  },
  {
    "id": 6549893,
    "name": "Schleid",
    "country": "DE",
    "coord": {
      "lon": 9.96667,
      "lat": 50.700001
    }
  },
  {
    "id": 2838749,
    "name": "Schleid",
    "country": "DE",
    "coord": {
      "lon": 9.96667,
      "lat": 50.700001
    }
  },
  {
    "id": 6554502,
    "name": "Schleid",
    "country": "DE",
    "coord": {
      "lon": 6.48333,
      "lat": 50.0667
    }
  },
  {
    "id": 2838750,
    "name": "Schleid",
    "country": "DE",
    "coord": {
      "lon": 6.48333,
      "lat": 50.066669
    }
  },
  {
    "id": 2838793,
    "name": "Schlegel",
    "country": "DE",
    "coord": {
      "lon": 14.88333,
      "lat": 50.98333
    }
  },
  {
    "id": 6556411,
    "name": "Schleching",
    "country": "DE",
    "coord": {
      "lon": 12.4,
      "lat": 47.716702
    }
  },
  {
    "id": 2838842,
    "name": "Schleching",
    "country": "DE",
    "coord": {
      "lon": 12.4,
      "lat": 47.716671
    }
  },
  {
    "id": 6553202,
    "name": "Schlangenbad",
    "country": "DE",
    "coord": {
      "lon": 8.1,
      "lat": 50.099998
    }
  },
  {
    "id": 2838918,
    "name": "Schlangenbad",
    "country": "DE",
    "coord": {
      "lon": 8.1,
      "lat": 50.099998
    }
  },
  {
    "id": 6556663,
    "name": "Schlammersdorf",
    "country": "DE",
    "coord": {
      "lon": 11.7333,
      "lat": 49.799999
    }
  },
  {
    "id": 2838924,
    "name": "Schlammersdorf",
    "country": "DE",
    "coord": {
      "lon": 11.73333,
      "lat": 49.799999
    }
  },
  {
    "id": 2838938,
    "name": "Schlaitz",
    "country": "DE",
    "coord": {
      "lon": 12.43333,
      "lat": 51.666672
    }
  },
  {
    "id": 2839049,
    "name": "Schkolen",
    "country": "DE",
    "coord": {
      "lon": 11.81667,
      "lat": 51.033329
    }
  },
  {
    "id": 2839090,
    "name": "Schirgiswalde",
    "country": "DE",
    "coord": {
      "lon": 14.43333,
      "lat": 51.066669
    }
  },
  {
    "id": 6551084,
    "name": "Schipkau",
    "country": "DE",
    "coord": {
      "lon": 13.91208,
      "lat": 51.545551
    }
  },
  {
    "id": 2839101,
    "name": "Schipkau",
    "country": "DE",
    "coord": {
      "lon": 13.88333,
      "lat": 51.51667
    }
  },
  {
    "id": 6555352,
    "name": "Schindhard",
    "country": "DE",
    "coord": {
      "lon": 7.82233,
      "lat": 49.14183
    }
  },
  {
    "id": 2839124,
    "name": "Schindhard",
    "country": "DE",
    "coord": {
      "lon": 7.82214,
      "lat": 49.14183
    }
  },
  {
    "id": 6557121,
    "name": "Schiltberg",
    "country": "DE",
    "coord": {
      "lon": 11.2333,
      "lat": 48.466702
    }
  },
  {
    "id": 2839194,
    "name": "Schiltberg",
    "country": "DE",
    "coord": {
      "lon": 11.24876,
      "lat": 48.462929
    }
  },
  {
    "id": 6551771,
    "name": "Schillsdorf",
    "country": "DE",
    "coord": {
      "lon": 10.1333,
      "lat": 54.116699
    }
  },
  {
    "id": 2839203,
    "name": "Schillsdorf",
    "country": "DE",
    "coord": {
      "lon": 10.13333,
      "lat": 54.116669
    }
  },
  {
    "id": 6550152,
    "name": "Schillingstedt",
    "country": "DE",
    "coord": {
      "lon": 11.2,
      "lat": 51.233299
    }
  },
  {
    "id": 2839207,
    "name": "Schillingstedt",
    "country": "DE",
    "coord": {
      "lon": 11.2,
      "lat": 51.23333
    }
  },
  {
    "id": 2839212,
    "name": "Schillingsfurst",
    "country": "DE",
    "coord": {
      "lon": 10.26667,
      "lat": 49.283329
    }
  },
  {
    "id": 2839303,
    "name": "Schildau",
    "country": "DE",
    "coord": {
      "lon": 12.93333,
      "lat": 51.450001
    }
  },
  {
    "id": 6554097,
    "name": "Schiesheim",
    "country": "DE",
    "coord": {
      "lon": 8.06667,
      "lat": 50.283298
    }
  },
  {
    "id": 2839377,
    "name": "Schiesheim",
    "country": "DE",
    "coord": {
      "lon": 8.06667,
      "lat": 50.283329
    }
  },
  {
    "id": 6556354,
    "name": "Scheyern",
    "country": "DE",
    "coord": {
      "lon": 11.4667,
      "lat": 48.5
    }
  },
  {
    "id": 2839527,
    "name": "Scheyern",
    "country": "DE",
    "coord": {
      "lon": 11.46667,
      "lat": 48.5
    }
  },
  {
    "id": 6554501,
    "name": "Scheuern",
    "country": "DE",
    "coord": {
      "lon": 6.3,
      "lat": 50.016701
    }
  },
  {
    "id": 2839560,
    "name": "Scheuern",
    "country": "DE",
    "coord": {
      "lon": 6.3,
      "lat": 50.01667
    }
  },
  {
    "id": 6553261,
    "name": "Schenklengsfeld",
    "country": "DE",
    "coord": {
      "lon": 9.85,
      "lat": 50.8167
    }
  },
  {
    "id": 2839726,
    "name": "Schenklengsfeld",
    "country": "DE",
    "coord": {
      "lon": 9.85,
      "lat": 50.816669
    }
  },
  {
    "id": 6547495,
    "name": "Schenkenzell",
    "country": "DE",
    "coord": {
      "lon": 8.36667,
      "lat": 48.299999
    }
  },
  {
    "id": 2839732,
    "name": "Schenkenzell",
    "country": "DE",
    "coord": {
      "lon": 8.36667,
      "lat": 48.299999
    }
  },
  {
    "id": 6547747,
    "name": "Schenkenberg",
    "country": "DE",
    "coord": {
      "lon": 13.95,
      "lat": 53.366699
    }
  },
  {
    "id": 2839751,
    "name": "Schenkenberg",
    "country": "DE",
    "coord": {
      "lon": 13.95,
      "lat": 53.366669
    }
  },
  {
    "id": 6552241,
    "name": "Schenefeld",
    "country": "DE",
    "coord": {
      "lon": 9.48333,
      "lat": 54.049999
    }
  },
  {
    "id": 2839763,
    "name": "Schenefeld",
    "country": "DE",
    "coord": {
      "lon": 9.48333,
      "lat": 54.049999
    }
  },
  {
    "id": 6551770,
    "name": "Schellhorn",
    "country": "DE",
    "coord": {
      "lon": 10.29505,
      "lat": 54.229568
    }
  },
  {
    "id": 2839812,
    "name": "Schellhorn",
    "country": "DE",
    "coord": {
      "lon": 10.29402,
      "lat": 54.229519
    }
  },
  {
    "id": 6554500,
    "name": "Scheitenkorb",
    "country": "DE",
    "coord": {
      "lon": 6.2,
      "lat": 50.016701
    }
  },
  {
    "id": 2839912,
    "name": "Scheitenkorb",
    "country": "DE",
    "coord": {
      "lon": 6.2,
      "lat": 50.01667
    }
  },
  {
    "id": 2839980,
    "name": "Scheidegg",
    "country": "DE",
    "coord": {
      "lon": 9.85,
      "lat": 47.583328
    }
  },
  {
    "id": 6554712,
    "name": "Scheid",
    "country": "DE",
    "coord": {
      "lon": 6.41667,
      "lat": 50.349998
    }
  },
  {
    "id": 2839997,
    "name": "Scheid",
    "country": "DE",
    "coord": {
      "lon": 6.41667,
      "lat": 50.349998
    }
  },
  {
    "id": 6555020,
    "name": "Scheibenhardt",
    "country": "DE",
    "coord": {
      "lon": 8.13333,
      "lat": 48.983299
    }
  },
  {
    "id": 2840016,
    "name": "Scheibenhardt",
    "country": "DE",
    "coord": {
      "lon": 8.13993,
      "lat": 48.981171
    }
  },
  {
    "id": 6555596,
    "name": "Schechingen",
    "country": "DE",
    "coord": {
      "lon": 9.91726,
      "lat": 48.873451
    }
  },
  {
    "id": 2840116,
    "name": "Schechingen",
    "country": "DE",
    "coord": {
      "lon": 9.91744,
      "lat": 48.873409
    }
  },
  {
    "id": 6556368,
    "name": "Schechen",
    "country": "DE",
    "coord": {
      "lon": 12.1333,
      "lat": 47.9333
    }
  },
  {
    "id": 2840117,
    "name": "Schechen",
    "country": "DE",
    "coord": {
      "lon": 12.12393,
      "lat": 47.929111
    }
  },
  {
    "id": 6553723,
    "name": "Schauren",
    "country": "DE",
    "coord": {
      "lon": 7.26667,
      "lat": 50.016701
    }
  },
  {
    "id": 2840129,
    "name": "Schauren",
    "country": "DE",
    "coord": {
      "lon": 7.26667,
      "lat": 50.01667
    }
  },
  {
    "id": 6553636,
    "name": "Schauren",
    "country": "DE",
    "coord": {
      "lon": 7.23776,
      "lat": 49.80719
    }
  },
  {
    "id": 2840130,
    "name": "Schauren",
    "country": "DE",
    "coord": {
      "lon": 7.23724,
      "lat": 49.80719
    }
  },