[
  {
    "id": 2637471,
    "name": "South Brent",
    "country": "GB",
    "coord": {
      "lon": -3.83426,
      "lat": 50.42654
    }
  },
  {
    "id": 2637488,
    "name": "Southam",
    "country": "GB",
    "coord": {
      "lon": -1.3884,
      "lat": 52.252659
    }
  },
  {
    "id": 2637522,
    "name": "Sonning",
    "country": "GB",
    "coord": {
      "lon": -0.91212,
      "lat": 51.47411
    }
  },
  {
    "id": 2637526,
    "name": "Somerton",
    "country": "GB",
    "coord": {
      "lon": -1.27613,
      "lat": 51.954208
    }
  },
  {
    "id": 2637528,
    "name": "Somersham",
    "country": "GB",
    "coord": {
      "lon": 0,
      "lat": 52.383331
    }
  },
  {
    "id": 2637554,
    "name": "Soham",
    "country": "GB",
    "coord": {
      "lon": 0.33869,
      "lat": 52.331772
    }
  },
  {
    "id": 2637571,
    "name": "Snodland",
    "country": "GB",
    "coord": {
      "lon": 0.44305,
      "lat": 51.329708
    }
  },
  {
    "id": 2637580,
    "name": "Snettisham",
    "country": "GB",
    "coord": {
      "lon": 0.50292,
      "lat": 52.877811
    }
  },
  {
    "id": 2637599,
    "name": "Snaith",
    "country": "GB",
    "coord": {
      "lon": -1.02859,
      "lat": 53.69112
    }
  },
  {
    "id": 2637607,
    "name": "Smethwick",
    "country": "GB",
    "coord": {
      "lon": -1.97305,
      "lat": 52.49699
    }
  },
  {
    "id": 2637652,
    "name": "Sleights",
    "country": "GB",
    "coord": {
      "lon": -0.66484,
      "lat": 54.455059
    }
  },
  {
    "id": 2637670,
    "name": "Slamannan",
    "country": "GB",
    "coord": {
      "lon": -3.83311,
      "lat": 55.93729
    }
  },
  {
    "id": 2637671,
    "name": "Slaley",
    "country": "GB",
    "coord": {
      "lon": -2.03711,
      "lat": 54.913681
    }
  },
  {
    "id": 2637702,
    "name": "Skipton",
    "country": "GB",
    "coord": {
      "lon": -2.01676,
      "lat": 53.961441
    }
  },
  {
    "id": 2637703,
    "name": "Skipsea",
    "country": "GB",
    "coord": {
      "lon": -0.22084,
      "lat": 53.976742
    }
  },
  {
    "id": 2637747,
    "name": "Skelton",
    "country": "GB",
    "coord": {
      "lon": -1.13333,
      "lat": 54
    }
  },
  {
    "id": 2637748,
    "name": "Skelton",
    "country": "GB",
    "coord": {
      "lon": -0.83333,
      "lat": 53.716671
    }
  },
  {
    "id": 2637751,
    "name": "Skelmorlie",
    "country": "GB",
    "coord": {
      "lon": -4.88475,
      "lat": 55.869499
    }
  },
  {
    "id": 2637756,
    "name": "Skellingthorpe",
    "country": "GB",
    "coord": {
      "lon": -0.61905,
      "lat": 53.23531
    }
  },
  {
    "id": 2637805,
    "name": "Siston",
    "country": "GB",
    "coord": {
      "lon": -2.45,
      "lat": 51.474442
    }
  },
  {
    "id": 2637809,
    "name": "Sion Mills",
    "country": "GB",
    "coord": {
      "lon": -7.47276,
      "lat": 54.787521
    }
  },
  {
    "id": 2637819,
    "name": "Simpson",
    "country": "GB",
    "coord": {
      "lon": -0.7,
      "lat": 52.01667
    }
  },
  {
    "id": 2637827,
    "name": "Silverstone",
    "country": "GB",
    "coord": {
      "lon": -1.02602,
      "lat": 52.092159
    }
  },
  {
    "id": 2637832,
    "name": "Silsoe",
    "country": "GB",
    "coord": {
      "lon": -0.42484,
      "lat": 52.008541
    }
  },
  {
    "id": 2637836,
    "name": "Silloth",
    "country": "GB",
    "coord": {
      "lon": -3.38448,
      "lat": 54.868698
    }
  },
  {
    "id": 2637845,
    "name": "Sileby",
    "country": "GB",
    "coord": {
      "lon": -1.10773,
      "lat": 52.732861
    }
  },
  {
    "id": 2637858,
    "name": "Siddington",
    "country": "GB",
    "coord": {
      "lon": -2.23333,
      "lat": 53.23333
    }
  },
  {
    "id": 2637871,
    "name": "Sible Hedingham",
    "country": "GB",
    "coord": {
      "lon": 0.59262,
      "lat": 51.977718
    }
  },
  {
    "id": 2637878,
    "name": "Shurdington",
    "country": "GB",
    "coord": {
      "lon": -2.1206,
      "lat": 51.86264
    }
  },
  {
    "id": 2637889,
    "name": "Shrivenham",
    "country": "GB",
    "coord": {
      "lon": -1.65461,
      "lat": 51.59853
    }
  },
  {
    "id": 2637898,
    "name": "Shotwick",
    "country": "GB",
    "coord": {
      "lon": -2.99056,
      "lat": 53.23938
    }
  },
  {
    "id": 2637901,
    "name": "Shotton",
    "country": "GB",
    "coord": {
      "lon": -1.36667,
      "lat": 54.783329
    }
  },
  {
    "id": 2637906,
    "name": "Shotley Gate",
    "country": "GB",
    "coord": {
      "lon": 1.26871,
      "lat": 51.957909
    }
  },
  {
    "id": 2637936,
    "name": "Shirland",
    "country": "GB",
    "coord": {
      "lon": -1.40464,
      "lat": 53.121552
    }
  },
  {
    "id": 2637941,
    "name": "Shirebrook",
    "country": "GB",
    "coord": {
      "lon": -1.21336,
      "lat": 53.203331
    }
  },
  {
    "id": 2637948,
    "name": "Shipton under Wychwood",
    "country": "GB",
    "coord": {
      "lon": -1.59847,
      "lat": 51.860352
    }
  },
  {
    "id": 2637954,
    "name": "Shipston on Stour",
    "country": "GB",
    "coord": {
      "lon": -1.62778,
      "lat": 52.06057
    }
  },
  {
    "id": 2637962,
    "name": "Shipdham",
    "country": "GB",
    "coord": {
      "lon": 0.89294,
      "lat": 52.627708
    }
  },
  {
    "id": 2637977,
    "name": "Shillington",
    "country": "GB",
    "coord": {
      "lon": -0.36006,
      "lat": 51.993439
    }
  },
  {
    "id": 2637983,
    "name": "Shildon",
    "country": "GB",
    "coord": {
      "lon": -1.64295,
      "lat": 54.629971
    }
  },
  {
    "id": 2637985,
    "name": "Shifnal",
    "country": "GB",
    "coord": {
      "lon": -2.37248,
      "lat": 52.670429
    }
  },
  {
    "id": 2638009,
    "name": "Shevington",
    "country": "GB",
    "coord": {
      "lon": -2.69316,
      "lat": 53.572361
    }
  },
  {
    "id": 2638017,
    "name": "Sherington",
    "country": "GB",
    "coord": {
      "lon": -0.69973,
      "lat": 52.111721
    }
  },
  {
    "id": 2638033,
    "name": "Sherborne",
    "country": "GB",
    "coord": {
      "lon": -2.5,
      "lat": 50.950001
    }
  },
  {
    "id": 2638036,
    "name": "Shepshed",
    "country": "GB",
    "coord": {
      "lon": -1.29021,
      "lat": 52.765701
    }
  },
  {
    "id": 2638039,
    "name": "Shepperton",
    "country": "GB",
    "coord": {
      "lon": -0.44889,
      "lat": 51.395458
    }
  },
  {
    "id": 2638041,
    "name": "Shepherdswell",
    "country": "GB",
    "coord": {
      "lon": 1.23049,
      "lat": 51.18713
    }
  },
  {
    "id": 2638047,
    "name": "Shenstone",
    "country": "GB",
    "coord": {
      "lon": -1.83333,
      "lat": 52.633331
    }
  },
  {
    "id": 2638049,
    "name": "Shenley Church End",
    "country": "GB",
    "coord": {
      "lon": -0.78994,
      "lat": 52.025219
    }
  },
  {
    "id": 2638051,
    "name": "Shenley AV",
    "country": "GB",
    "coord": {
      "lon": -0.28067,
      "lat": 51.69054
    }
  },
  {
    "id": 2638065,
    "name": "Shelley",
    "country": "GB",
    "coord": {
      "lon": -1.68333,
      "lat": 53.599998
    }
  },
  {
    "id": 2638074,
    "name": "Shefford",
    "country": "GB",
    "coord": {
      "lon": -0.33399,
      "lat": 52.0387
    }
  },
  {
    "id": 2638081,
    "name": "Sheerness",
    "country": "GB",
    "coord": {
      "lon": 0.76029,
      "lat": 51.439461
    }
  },
  {
    "id": 2638111,
    "name": "Shawbury",
    "country": "GB",
    "coord": {
      "lon": -2.65,
      "lat": 52.783329
    }
  },
  {
    "id": 2638113,
    "name": "Shaw",
    "country": "GB",
    "coord": {
      "lon": -2.08333,
      "lat": 53.566669
    }
  },
  {
    "id": 2638122,
    "name": "Sharnbrook",
    "country": "GB",
    "coord": {
      "lon": -0.54425,
      "lat": 52.226059
    }
  },
  {
    "id": 2638138,
    "name": "Shanklin",
    "country": "GB",
    "coord": {
      "lon": -1.1785,
      "lat": 50.626129
    }
  },
  {
    "id": 2638151,
    "name": "Shalfleet",
    "country": "GB",
    "coord": {
      "lon": -1.415,
      "lat": 50.701401
    }
  },
  {
    "id": 2638156,
    "name": "Shafton",
    "country": "GB",
    "coord": {
      "lon": -1.40925,
      "lat": 53.592861
    }
  },
  {
    "id": 2638157,
    "name": "Shaftesbury",
    "country": "GB",
    "coord": {
      "lon": -2.19333,
      "lat": 51.00528
    }
  },
  {
    "id": 2638185,
    "name": "Seven Sisters",
    "country": "GB",
    "coord": {
      "lon": -3.71667,
      "lat": 51.76667
    }
  },
  {
    "id": 2638192,
    "name": "Settle",
    "country": "GB",
    "coord": {
      "lon": -2.2772,
      "lat": 54.068649
    }
  },
  {
    "id": 2638204,
    "name": "Sennen",
    "country": "GB",
    "coord": {
      "lon": -5.70117,
      "lat": 50.07777
    }
  },
  {
    "id": 2638207,
    "name": "Send",
    "country": "GB",
    "coord": {
      "lon": -0.52666,
      "lat": 51.28875
    }
  },
  {
    "id": 2638219,
    "name": "Selsey",
    "country": "GB",
    "coord": {
      "lon": -0.78979,
      "lat": 50.735008
    }
  },
  {
    "id": 2638226,
    "name": "Sellack",
    "country": "GB",
    "coord": {
      "lon": -2.63333,
      "lat": 51.950001
    }
  },
  {
    "id": 2638229,
    "name": "Selkirk",
    "country": "GB",
    "coord": {
      "lon": -2.83911,
      "lat": 55.547379
    }
  },
  {
    "id": 2638252,
    "name": "Seend",
    "country": "GB",
    "coord": {
      "lon": -2.08472,
      "lat": 51.348061
    }
  },
  {
    "id": 2638259,
    "name": "Sedgefield",
    "country": "GB",
    "coord": {
      "lon": -1.44952,
      "lat": 54.65329
    }
  },
  {
    "id": 2638264,
    "name": "Seaview",
    "country": "GB",
    "coord": {
      "lon": -1.11164,
      "lat": 50.719559
    }
  },
  {
    "id": 2638273,
    "name": "Seaton Delaval",
    "country": "GB",
    "coord": {
      "lon": -1.52609,
      "lat": 55.07196
    }
  },
  {
    "id": 2638277,
    "name": "Seaton",
    "country": "GB",
    "coord": {
      "lon": -0.66759,
      "lat": 52.57489
    }
  },
  {
    "id": 2638282,
    "name": "Seascale",
    "country": "GB",
    "coord": {
      "lon": -3.47961,
      "lat": 54.398312
    }
  },
  {
    "id": 2638312,
    "name": "Seafield",
    "country": "GB",
    "coord": {
      "lon": -3.15,
      "lat": 55.966671
    }
  },
  {
    "id": 2638348,
    "name": "Scotter",
    "country": "GB",
    "coord": {
      "lon": -0.67429,
      "lat": 53.496521
    }
  },
  {
    "id": 2638365,
    "name": "Scotby",
    "country": "GB",
    "coord": {
      "lon": -2.87464,
      "lat": 54.890041
    }
  },
  {
    "id": 2638386,
    "name": "Scholes",
    "country": "GB",
    "coord": {
      "lon": -1.42805,
      "lat": 53.82346
    }
  },
  {
    "id": 2638391,
    "name": "Scawby",
    "country": "GB",
    "coord": {
      "lon": -0.54085,
      "lat": 53.537868
    }
  },
  {
    "id": 2638417,
    "name": "Scarcroft",
    "country": "GB",
    "coord": {
      "lon": -1.45,
      "lat": 53.866669
    }
  },
  {
    "id": 2638448,
    "name": "Scalby",
    "country": "GB",
    "coord": {
      "lon": -0.71667,
      "lat": 53.76667
    }
  },
  {
    "id": 2638464,
    "name": "Saxmundham",
    "country": "GB",
    "coord": {
      "lon": 1.48805,
      "lat": 52.21497
    }
  },
  {
    "id": 2638467,
    "name": "Saxilby",
    "country": "GB",
    "coord": {
      "lon": -0.66253,
      "lat": 53.26746
    }
  },
  {
    "id": 2638473,
    "name": "Sawtry",
    "country": "GB",
    "coord": {
      "lon": -0.28422,
      "lat": 52.439838
    }
  },
  {
    "id": 2638474,
    "name": "Sawston",
    "country": "GB",
    "coord": {
      "lon": 0.16943,
      "lat": 52.120892
    }
  },
  {
    "id": 2638481,
    "name": "Sawbridgeworth",
    "country": "GB",
    "coord": {
      "lon": 0.15,
      "lat": 51.816669
    }
  },
  {
    "id": 2638490,
    "name": "Saundersfoot",
    "country": "GB",
    "coord": {
      "lon": -4.70069,
      "lat": 51.711842
    }
  },
  {
    "id": 2638495,
    "name": "Saughall",
    "country": "GB",
    "coord": {
      "lon": -2.95649,
      "lat": 53.226181
    }
  },
  {
    "id": 2638515,
    "name": "Sapcote",
    "country": "GB",
    "coord": {
      "lon": -1.279,
      "lat": 52.537071
    }
  },
  {
    "id": 2638520,
    "name": "Sanquhar",
    "country": "GB",
    "coord": {
      "lon": -3.9216,
      "lat": 55.365269
    }
  },
  {
    "id": 2638530,
    "name": "Sandy",
    "country": "GB",
    "coord": {
      "lon": -0.28925,
      "lat": 52.129269
    }
  },
  {
    "id": 2638534,
    "name": "Sandwick",
    "country": "GB",
    "coord": {
      "lon": -1.25,
      "lat": 60
    }
  },
  {
    "id": 2638542,
    "name": "Sandwich",
    "country": "GB",
    "coord": {
      "lon": 1.33776,
      "lat": 51.272228
    }
  },
  {
    "id": 2638593,
    "name": "Sandford",
    "country": "GB",
    "coord": {
      "lon": -2.83122,
      "lat": 51.332279
    }
  },
  {
    "id": 2638639,
    "name": "Saltford",
    "country": "GB",
    "coord": {
      "lon": -2.45944,
      "lat": 51.40139
    }
  },
  {
    "id": 2638648,
    "name": "Saltcoats",
    "country": "GB",
    "coord": {
      "lon": -4.8,
      "lat": 55.616669
    }
  },
  {
    "id": 2638650,
    "name": "Saltburn-by-the-Sea",
    "country": "GB",
    "coord": {
      "lon": -0.97367,
      "lat": 54.582371
    }
  },
  {
    "id": 2638651,
    "name": "Saltash",
    "country": "GB",
    "coord": {
      "lon": -4.22514,
      "lat": 50.409592
    }
  },
  {
    "id": 2638665,
    "name": "Saline",
    "country": "GB",
    "coord": {
      "lon": -3.57034,
      "lat": 56.113991
    }
  },
  {
    "id": 2638669,
    "name": "Salfords",
    "country": "GB",
    "coord": {
      "lon": -0.16744,
      "lat": 51.204342
    }
  },
  {
    "id": 2638682,
    "name": "Salcombe",
    "country": "GB",
    "coord": {
      "lon": -3.76874,
      "lat": 50.237431
    }
  },
  {
    "id": 2638708,
    "name": "Saint Osyth",
    "country": "GB",
    "coord": {
      "lon": 1.08333,
      "lat": 51.799999
    }
  },
  {
    "id": 2638719,
    "name": "Saint Monance",
    "country": "GB",
    "coord": {
      "lon": -2.76821,
      "lat": 56.206509
    }
  },
  {
    "id": 2638757,
    "name": "Saint Leonards",
    "country": "GB",
    "coord": {
      "lon": -1.85,
      "lat": 50.833328
    }
  },
  {
    "id": 2638767,
    "name": "Saint Just",
    "country": "GB",
    "coord": {
      "lon": -5.7,
      "lat": 50.116669
    }
  },
  {
    "id": 2638778,
    "name": "St Ives",
    "country": "GB",
    "coord": {
      "lon": -5.4875,
      "lat": 50.208611
    }
  },
  {
    "id": 2638800,
    "name": "Saintfield",
    "country": "GB",
    "coord": {
      "lon": -5.83065,
      "lat": 54.460461
    }
  },
  {
    "id": 2638817,
    "name": "Saint Dennis",
    "country": "GB",
    "coord": {
      "lon": -4.88333,
      "lat": 50.383331
    }
  },
  {
    "id": 2638819,
    "name": "St. Day",
    "country": "GB",
    "coord": {
      "lon": -5.18572,
      "lat": 50.239578
    }
  },
  {
    "id": 2638822,
    "name": "Saint Davids",
    "country": "GB",
    "coord": {
      "lon": -5.26667,
      "lat": 51.883331
    }
  },
  {
    "id": 2638828,
    "name": "Saint Columb Major",
    "country": "GB",
    "coord": {
      "lon": -4.93333,
      "lat": 50.433331
    }
  },
  {
    "id": 2638833,
    "name": "Saint Clears",
    "country": "GB",
    "coord": {
      "lon": -4.49783,
      "lat": 51.819889
    }
  },
  {
    "id": 2638848,
    "name": "Saint Boswells",
    "country": "GB",
    "coord": {
      "lon": -2.6441,
      "lat": 55.573009
    }
  },
  {
    "id": 2638855,
    "name": "Saint Asaph",
    "country": "GB",
    "coord": {
      "lon": -3.45,
      "lat": 53.26667
    }
  },
  {
    "id": 2638870,
    "name": "Saint Agnes",
    "country": "GB",
    "coord": {
      "lon": -5.20452,
      "lat": 50.313629
    }
  },
  {
    "id": 2638888,
    "name": "Sacriston",
    "country": "GB",
    "coord": {
      "lon": -1.6241,
      "lat": 54.817692
    }
  },
  {
    "id": 2638892,
    "name": "Ryton on Dunsmore",
    "country": "GB",
    "coord": {
      "lon": -1.43333,
      "lat": 52.366669
    }
  },
  {
    "id": 2638901,
    "name": "Ryhill",
    "country": "GB",
    "coord": {
      "lon": -1.41071,
      "lat": 53.62204
    }
  },
  {
    "id": 2638902,
    "name": "Ryhall",
    "country": "GB",
    "coord": {
      "lon": -0.46846,
      "lat": 52.685848
    }
  },
  {
    "id": 2638909,
    "name": "Rye",
    "country": "GB",
    "coord": {
      "lon": 0.7337,
      "lat": 50.951141
    }
  },
  {
    "id": 2638925,
    "name": "Ruthin",
    "country": "GB",
    "coord": {
      "lon": -3.31782,
      "lat": 53.113682
    }
  },
  {
    "id": 2638930,
    "name": "Rustington",
    "country": "GB",
    "coord": {
      "lon": -0.50674,
      "lat": 50.810268
    }
  },
  {
    "id": 2638938,
    "name": "Ruskington",
    "country": "GB",
    "coord": {
      "lon": -0.38692,
      "lat": 53.045441
    }
  },
  {
    "id": 2638951,
    "name": "Rushall",
    "country": "GB",
    "coord": {
      "lon": -1.81667,
      "lat": 51.283329
    }
  },
  {
    "id": 2638992,
    "name": "Rudgwick",
    "country": "GB",
    "coord": {
      "lon": -0.45164,
      "lat": 51.087349
    }
  },
  {
    "id": 2638995,
    "name": "Ruddington",
    "country": "GB",
    "coord": {
      "lon": -1.14953,
      "lat": 52.89254
    }
  },
  {
    "id": 2639014,
    "name": "Ruabon",
    "country": "GB",
    "coord": {
      "lon": -3.03883,
      "lat": 52.987801
    }
  },
  {
    "id": 2639017,
    "name": "Royston",
    "country": "GB",
    "coord": {
      "lon": -1.45,
      "lat": 53.599998
    }
  },
  {
    "id": 2639020,
    "name": "Roydon",
    "country": "GB",
    "coord": {
      "lon": 0.0403,
      "lat": 51.771801
    }
  },
  {
    "id": 2639029,
    "name": "Roxton",
    "country": "GB",
    "coord": {
      "lon": -0.31594,
      "lat": 52.177559
    }
  },
  {
    "id": 2639039,
    "name": "Rowlstone",
    "country": "GB",
    "coord": {
      "lon": -2.91667,
      "lat": 51.933331
    }
  },
  {
    "id": 2639040,
    "name": "Rowley Regis",
    "country": "GB",
    "coord": {
      "lon": -2.04376,
      "lat": 52.482922
    }
  },
  {
    "id": 2639042,
    "name": "Rowlands Gill",
    "country": "GB",
    "coord": {
      "lon": -1.74489,
      "lat": 54.91922
    }
  },
  {
    "id": 2639045,
    "name": "Rowhedge",
    "country": "GB",
    "coord": {
      "lon": 0.94534,
      "lat": 51.85738
    }
  },
  {
    "id": 2639074,
    "name": "Rothwell",
    "country": "GB",
    "coord": {
      "lon": -0.8,
      "lat": 52.416672
    }
  },
  {
    "id": 2639075,
    "name": "Rothley",
    "country": "GB",
    "coord": {
      "lon": -1.91667,
      "lat": 55.183331
    }
  },
  {
    "id": 2639086,
    "name": "Rothes",
    "country": "GB",
    "coord": {
      "lon": -3.20663,
      "lat": 57.526241
    }
  },
  {
    "id": 2639101,
    "name": "Rothbury",
    "country": "GB",
    "coord": {
      "lon": -1.90845,
      "lat": 55.310589
    }
  },
  {
    "id": 2639104,
    "name": "Rosyth",
    "country": "GB",
    "coord": {
      "lon": -3.438,
      "lat": 56.036888
    }
  },
  {
    "id": 2639106,
    "name": "Rostrevor",
    "country": "GB",
    "coord": {
      "lon": -6.2,
      "lat": 54.099998
    }
  },
  {
    "id": 2639110,
    "name": "Ross on Wye",
    "country": "GB",
    "coord": {
      "lon": -2.56667,
      "lat": 51.916672
    }
  },
  {
    "id": 2639119,
    "name": "Rossington",
    "country": "GB",
    "coord": {
      "lon": -1.0619,
      "lat": 53.479309
    }
  },
  {
    "id": 2639123,
    "name": "Rossett",
    "country": "GB",
    "coord": {
      "lon": -2.94478,
      "lat": 53.109211
    }
  },
  {
    "id": 2639144,
    "name": "Rosehearty",
    "country": "GB",
    "coord": {
      "lon": -2.11322,
      "lat": 57.696999
    }
  },
  {
    "id": 2639166,
    "name": "Roos",
    "country": "GB",
    "coord": {
      "lon": -0.04463,
      "lat": 53.752918
    }
  },
  {
    "id": 2639192,
    "name": "Romford",
    "country": "GB",
    "coord": {
      "lon": 0.18582,
      "lat": 51.57515
    }
  },
  {
    "id": 2639199,
    "name": "Romaldkirk",
    "country": "GB",
    "coord": {
      "lon": -2.01058,
      "lat": 54.594398
    }
  },
  {
    "id": 2639207,
    "name": "Rokeby",
    "country": "GB",
    "coord": {
      "lon": -1.86667,
      "lat": 54.51667
    }
  },
  {
    "id": 2639239,
    "name": "Rode Heath",
    "country": "GB",
    "coord": {
      "lon": -2.28333,
      "lat": 53.116669
    }
  },
  {
    "id": 2639267,
    "name": "Rochester",
    "country": "GB",
    "coord": {
      "lon": -2.25,
      "lat": 55.299999
    }
  },
  {
    "id": 2639270,
    "name": "Roche",
    "country": "GB",
    "coord": {
      "lon": -4.83373,
      "lat": 50.408081
    }
  },
  {
    "id": 2639282,
    "name": "Robertsbridge",
    "country": "GB",
    "coord": {
      "lon": 0.47253,
      "lat": 50.985691
    }
  },
  {
    "id": 2639296,
    "name": "Roade",
    "country": "GB",
    "coord": {
      "lon": -0.89745,
      "lat": 52.158241
    }
  },
  {
    "id": 2639310,
    "name": "Rishton",
    "country": "GB",
    "coord": {
      "lon": -2.41444,
      "lat": 53.768059
    }
  },
  {
    "id": 2639313,
    "name": "Riseley",
    "country": "GB",
    "coord": {
      "lon": -0.47928,
      "lat": 52.252129
    }
  },
  {
    "id": 2639320,
    "name": "Ripponden",
    "country": "GB",
    "coord": {
      "lon": -1.94183,
      "lat": 53.674492
    }
  },
  {
    "id": 2639326,
    "name": "Ripley",
    "country": "GB",
    "coord": {
      "lon": -0.49164,
      "lat": 51.299068
    }
  },
  {
    "id": 2639334,
    "name": "Ringwood",
    "country": "GB",
    "coord": {
      "lon": -1.79214,
      "lat": 50.8465
    }
  },
  {
    "id": 2639343,
    "name": "Ringmer",
    "country": "GB",
    "coord": {
      "lon": 0.05545,
      "lat": 50.89307
    }
  },
  {
    "id": 2639350,
    "name": "Rimswell",
    "country": "GB",
    "coord": {
      "lon": -0.01742,
      "lat": 53.740791
    }
  },
  {
    "id": 2639367,
    "name": "Ridlington",
    "country": "GB",
    "coord": {
      "lon": -0.756,
      "lat": 52.613369
    }
  },
  {
    "id": 2639371,
    "name": "Ridgmont",
    "country": "GB",
    "coord": {
      "lon": -0.57871,
      "lat": 52.01532
    }
  },
  {
    "id": 2639381,
    "name": "Rickmansworth",
    "country": "GB",
    "coord": {
      "lon": -0.47295,
      "lat": 51.639278
    }
  },
  {
    "id": 2639389,
    "name": "Richmond",
    "country": "GB",
    "coord": {
      "lon": -0.30075,
      "lat": 51.460049
    }
  },
  {
    "id": 2639393,
    "name": "Riccall",
    "country": "GB",
    "coord": {
      "lon": -1.0573,
      "lat": 53.833309
    }
  },
  {
    "id": 2639407,
    "name": "Rhymney",
    "country": "GB",
    "coord": {
      "lon": -3.28553,
      "lat": 51.759979
    }
  },
  {
    "id": 2639425,
    "name": "Rhuddlan",
    "country": "GB",
    "coord": {
      "lon": -3.46667,
      "lat": 53.283329
    }
  },
  {
    "id": 2639426,
    "name": "Rhu",
    "country": "GB",
    "coord": {
      "lon": -4.76667,
      "lat": 56.01667
    }
  },
  {
    "id": 2639470,
    "name": "Rhayader",
    "country": "GB",
    "coord": {
      "lon": -3.51146,
      "lat": 52.30154
    }
  },
  {
    "id": 2639482,
    "name": "Resolven",
    "country": "GB",
    "coord": {
      "lon": -3.69745,
      "lat": 51.711929
    }
  },
  {
    "id": 2639489,
    "name": "Repton",
    "country": "GB",
    "coord": {
      "lon": -1.55061,
      "lat": 52.839828
    }
  },
  {
    "id": 2639492,
    "name": "Renton",
    "country": "GB",
    "coord": {
      "lon": -4.58399,
      "lat": 55.972
    }
  },
  {
    "id": 2639500,
    "name": "Remenham",
    "country": "GB",
    "coord": {
      "lon": -0.89084,
      "lat": 51.551891
    }
  },
  {
    "id": 2639511,
    "name": "Reepham",
    "country": "GB",
    "coord": {
      "lon": -0.43333,
      "lat": 53.23333
    }
  },
  {
    "id": 2639520,
    "name": "Reed",
    "country": "GB",
    "coord": {
      "lon": -0.01905,
      "lat": 52.008289
    }
  },
  {
    "id": 2639522,
    "name": "Redwick",
    "country": "GB",
    "coord": {
      "lon": -2.85,
      "lat": 51.55278
    }
  },
  {
    "id": 2639536,
    "name": "Redlynch",
    "country": "GB",
    "coord": {
      "lon": -2.42667,
      "lat": 51.09861
    }
  },
  {
    "id": 2639566,
    "name": "Redbourne",
    "country": "GB",
    "coord": {
      "lon": -0.53567,
      "lat": 53.487282
    }
  },
  {
    "id": 2639567,
    "name": "Redbourn",
    "country": "GB",
    "coord": {
      "lon": -0.39594,
      "lat": 51.798962
    }
  },
  {
    "id": 2639582,
    "name": "Rayne",
    "country": "GB",
    "coord": {
      "lon": 0.58333,
      "lat": 51.866669
    }
  },
  {
    "id": 2639590,
    "name": "Rawcliffe",
    "country": "GB",
    "coord": {
      "lon": -0.95,
      "lat": 53.683331
    }
  },
  {
    "id": 2639597,
    "name": "Ravenstone",
    "country": "GB",
    "coord": {
      "lon": -0.75874,
      "lat": 52.149342
    }
  },
  {
    "id": 2639600,
    "name": "Raunds",
    "country": "GB",
    "coord": {
      "lon": -0.53657,
      "lat": 52.34428
    }
  },
  {
    "id": 2639615,
    "name": "Ratho",
    "country": "GB",
    "coord": {
      "lon": -3.38028,
      "lat": 55.921638
    }
  },
  {
    "id": 2639621,
    "name": "Rathfriland",
    "country": "GB",
    "coord": {
      "lon": -6.16667,
      "lat": 54.25
    }
  },
  {
    "id": 2639653,
    "name": "Randalstown",
    "country": "GB",
    "coord": {
      "lon": -6.3,
      "lat": 54.75
    }
  },
  {
    "id": 2639664,
    "name": "Ramsey",
    "country": "GB",
    "coord": {
      "lon": -0.10703,
      "lat": 52.448158
    }
  },
  {
    "id": 2639687,
    "name": "Rainworth",
    "country": "GB",
    "coord": {
      "lon": -1.11852,
      "lat": 53.118832
    }
  },
  {
    "id": 2639691,
    "name": "Rainham",
    "country": "GB",
    "coord": {
      "lon": 0.60893,
      "lat": 51.363232
    }
  },
  {
    "id": 2639693,
    "name": "Rainford",
    "country": "GB",
    "coord": {
      "lon": -2.78839,
      "lat": 53.502232
    }
  },
  {
    "id": 2639710,
    "name": "Radyr",
    "country": "GB",
    "coord": {
      "lon": -3.25829,
      "lat": 51.518639
    }
  },
  {
    "id": 2639715,
    "name": "Radstock",
    "country": "GB",
    "coord": {
      "lon": -2.46003,
      "lat": 51.28862
    }
  },
  {
    "id": 2639719,
    "name": "Radley",
    "country": "GB",
    "coord": {
      "lon": -1.24025,
      "lat": 51.687462
    }
  },
  {
    "id": 2639720,
    "name": "Radlett",
    "country": "GB",
    "coord": {
      "lon": -0.31868,
      "lat": 51.685928
    }
  },
  {
    "id": 2639727,
    "name": "Radcliffe on Trent",
    "country": "GB",
    "coord": {
      "lon": -1.03855,
      "lat": 52.948021
    }
  },
  {
    "id": 2639755,
    "name": "Quorndon",
    "country": "GB",
    "coord": {
      "lon": -1.17348,
      "lat": 52.74461
    }
  },
  {
    "id": 2639779,
    "name": "Queniborough",
    "country": "GB",
    "coord": {
      "lon": -1.04749,
      "lat": 52.70591
    }
  },
  {
    "id": 2639788,
    "name": "Queensferry",
    "country": "GB",
    "coord": {
      "lon": -3.4,
      "lat": 55.98333
    }
  },
  {
    "id": 2639789,
    "name": "Queensferry",
    "country": "GB",
    "coord": {
      "lon": -3.03333,
      "lat": 53.200001
    }
  },
  {
    "id": 2639792,
    "name": "Queensbury",
    "country": "GB",
    "coord": {
      "lon": -1.91667,
      "lat": 53.76667
    }
  },
  {
    "id": 2639796,
    "name": "Queenborough",
    "country": "GB",
    "coord": {
      "lon": 0.74767,
      "lat": 51.416199
    }
  },
  {
    "id": 2639823,
    "name": "Pyle",
    "country": "GB",
    "coord": {
      "lon": -3.7,
      "lat": 51.51667
    }
  },
  {
    "id": 2639828,
    "name": "Pwllheli",
    "country": "GB",
    "coord": {
      "lon": -4.41451,
      "lat": 52.8899
    }
  },
  {
    "id": 2639840,
    "name": "Purton",
    "country": "GB",
    "coord": {
      "lon": -1.86667,
      "lat": 51.583328
    }
  },
  {
    "id": 2639844,
    "name": "Puriton",
    "country": "GB",
    "coord": {
      "lon": -2.97198,
      "lat": 51.169331
    }
  },
  {
    "id": 2639845,
    "name": "Purfleet",
    "country": "GB",
    "coord": {
      "lon": 0.24247,
      "lat": 51.483898
    }
  },
  {
    "id": 2639856,
    "name": "Pulloxhill",
    "country": "GB",
    "coord": {
      "lon": -0.45316,
      "lat": 51.994869
    }
  },
  {
    "id": 2639864,
    "name": "Pulborough",
    "country": "GB",
    "coord": {
      "lon": -0.49902,
      "lat": 50.957352
    }
  },
  {
    "id": 2639871,
    "name": "Publow",
    "country": "GB",
    "coord": {
      "lon": -2.54028,
      "lat": 51.376942
    }
  },
  {
    "id": 2639874,
    "name": "Prudhoe",
    "country": "GB",
    "coord": {
      "lon": -1.85168,
      "lat": 54.96154
    }
  },
  {
    "id": 2639880,
    "name": "Probus",
    "country": "GB",
    "coord": {
      "lon": -4.95401,
      "lat": 50.292671
    }
  },
  {
    "id": 2639883,
    "name": "Priston",
    "country": "GB",
    "coord": {
      "lon": -2.43917,
      "lat": 51.34306
    }
  },
  {
    "id": 2639888,
    "name": "Princes Risborough",
    "country": "GB",
    "coord": {
      "lon": -0.83144,
      "lat": 51.725491
    }
  },
  {
    "id": 2639902,
    "name": "Prestonpans",
    "country": "GB",
    "coord": {
      "lon": -2.98038,
      "lat": 55.959389
    }
  },
  {
    "id": 2639913,
    "name": "Preston",
    "country": "GB",
    "coord": {
      "lon": -0.19775,
      "lat": 53.75663
    }
  },
  {
    "id": 2639914,
    "name": "Preston",
    "country": "GB",
    "coord": {
      "lon": -0.71437,
      "lat": 52.61264
    }
  },
  {
    "id": 2639924,
    "name": "Presteigne",
    "country": "GB",
    "coord": {
      "lon": -3,
      "lat": 52.283329
    }
  },
  {
    "id": 2639925,
    "name": "Prestbury",
    "country": "GB",
    "coord": {
      "lon": -2.15,
      "lat": 53.283329
    }
  },
  {
    "id": 2639934,
    "name": "Preesall",
    "country": "GB",
    "coord": {
      "lon": -2.96633,
      "lat": 53.918201
    }
  },
  {
    "id": 2639935,
    "name": "Prees",
    "country": "GB",
    "coord": {
      "lon": -2.66401,
      "lat": 52.896889
    }
  },
  {
    "id": 2639941,
    "name": "Poynton",
    "country": "GB",
    "coord": {
      "lon": -2.11667,
      "lat": 53.349998
    }
  },
  {
    "id": 2639954,
    "name": "Poundstock",
    "country": "GB",
    "coord": {
      "lon": -4.55,
      "lat": 50.76667
    }
  },
  {
    "id": 2639962,
    "name": "Pott Shrigley",
    "country": "GB",
    "coord": {
      "lon": -2.08405,
      "lat": 53.30957
    }
  },
  {
    "id": 2639964,
    "name": "Potton",
    "country": "GB",
    "coord": {
      "lon": -0.21561,
      "lat": 52.129108
    }
  },
  {
    "id": 2639975,
    "name": "Potsgrove",
    "country": "GB",
    "coord": {
      "lon": -0.61755,
      "lat": 51.959389
    }
  },
  {
    "id": 2639989,
    "name": "Port Talbot",
    "country": "GB",
    "coord": {
      "lon": -3.78019,
      "lat": 51.592411
    }
  },
  {
    "id": 2639991,
    "name": "Portstewart",
    "country": "GB",
    "coord": {
      "lon": -6.71402,
      "lat": 55.18132
    }
  },
  {
    "id": 2639992,
    "name": "Portsoy",
    "country": "GB",
    "coord": {
      "lon": -2.68956,
      "lat": 57.681438
    }
  },
  {
    "id": 2640004,
    "name": "Portrush",
    "country": "GB",
    "coord": {
      "lon": -6.6493,
      "lat": 55.195919
    }
  },
  {
    "id": 2640006,
    "name": "Portree",
    "country": "GB",
    "coord": {
      "lon": -6.19418,
      "lat": 57.41288
    }
  },
  {
    "id": 2640030,
    "name": "Portlethen",
    "country": "GB",
    "coord": {
      "lon": -2.13066,
      "lat": 57.054741
    }
  },
  {
    "id": 2640035,
    "name": "Portknockie",
    "country": "GB",
    "coord": {
      "lon": -2.85989,
      "lat": 57.70248
    }
  },
  {
    "id": 2640044,
    "name": "Portscatho",
    "country": "GB",
    "coord": {
      "lon": -4.97356,
      "lat": 50.17271
    }
  },
  {
    "id": 2640046,
    "name": "Porthleven",
    "country": "GB",
    "coord": {
      "lon": -5.31501,
      "lat": 50.086182
    }
  },
  {
    "id": 2640056,
    "name": "Porth",
    "country": "GB",
    "coord": {
      "lon": -3.40361,
      "lat": 51.61306
    }
  },
  {
    "id": 2640059,
    "name": "Portglenone",
    "country": "GB",
    "coord": {
      "lon": -6.47146,
      "lat": 54.871471
    }
  },
  {
    "id": 2640064,
    "name": "Port Erroll",
    "country": "GB",
    "coord": {
      "lon": -1.83333,
      "lat": 57.416672
    }
  },
  {
    "id": 2640076,
    "name": "Port Bannatyne",
    "country": "GB",
    "coord": {
      "lon": -5.06503,
      "lat": 55.856602
    }
  },
  {
    "id": 2640078,
    "name": "Portavogie",
    "country": "GB",
    "coord": {
      "lon": -5.44304,
      "lat": 54.45916
    }
  },
  {
    "id": 2640084,
    "name": "Portaferry",
    "country": "GB",
    "coord": {
      "lon": -5.55,
      "lat": 54.383331
    }
  },
  {
    "id": 2640090,
    "name": "Poringland",
    "country": "GB",
    "coord": {
      "lon": 1.34961,
      "lat": 52.567558
    }
  },
  {
    "id": 2640091,
    "name": "Poplar",
    "country": "GB",
    "coord": {
      "lon": -0.01565,
      "lat": 51.511131
    }
  },
  {
    "id": 2640102,
    "name": "Pool",
    "country": "GB",
    "coord": {
      "lon": -1.61667,
      "lat": 53.900002
    }
  },
  {
    "id": 2640110,
    "name": "Pontyberem",
    "country": "GB",
    "coord": {
      "lon": -4.1689,
      "lat": 51.778259
    }
  },
  {
    "id": 2640127,
    "name": "Ponthir",
    "country": "GB",
    "coord": {
      "lon": -2.97611,
      "lat": 51.632221
    }
  },
  {
    "id": 2640129,
    "name": "Pontesbury",
    "country": "GB",
    "coord": {
      "lon": -2.89035,
      "lat": 52.648258
    }
  },
  {
    "id": 2640131,
    "name": "Ponteland",
    "country": "GB",
    "coord": {
      "lon": -1.74532,
      "lat": 55.05024
    }
  },
  {
    "id": 2640134,
    "name": "Pontardulais",
    "country": "GB",
    "coord": {
      "lon": -4.03859,
      "lat": 51.71423
    }
  },
  {
    "id": 2640166,
    "name": "Pollington",
    "country": "GB",
    "coord": {
      "lon": -1.07237,
      "lat": 53.670929
    }
  },
  {
    "id": 2640184,
    "name": "Podington",
    "country": "GB",
    "coord": {
      "lon": -0.62227,
      "lat": 52.253868
    }
  },
  {
    "id": 2640185,
    "name": "Pocklington",
    "country": "GB",
    "coord": {
      "lon": -0.78106,
      "lat": 53.93335
    }
  },
  {
    "id": 2640219,
    "name": "Plean",
    "country": "GB",
    "coord": {
      "lon": -3.87596,
      "lat": 56.065159
    }
  },
  {
    "id": 2640241,
    "name": "Pittington",
    "country": "GB",
    "coord": {
      "lon": -1.48333,
      "lat": 54.799999
    }
  },
  {
    "id": 2640242,
    "name": "Pittenweem",
    "country": "GB",
    "coord": {
      "lon": -2.72839,
      "lat": 56.214062
    }
  },
  {
    "id": 2640253,
    "name": "Pitmedden",
    "country": "GB",
    "coord": {
      "lon": -2.18022,
      "lat": 57.33691
    }
  },
  {
    "id": 2640255,
    "name": "Pitlochry",
    "country": "GB",
    "coord": {
      "lon": -3.73432,
      "lat": 56.705139
    }
  },
  {
    "id": 2640273,
    "name": "Pinxton",
    "country": "GB",
    "coord": {
      "lon": -1.31767,
      "lat": 53.090618
    }
  },
  {
    "id": 2640279,
    "name": "Pinchbeck",
    "country": "GB",
    "coord": {
      "lon": -0.16256,
      "lat": 52.81303
    }
  },
  {
    "id": 2640285,
    "name": "Pilsley",
    "country": "GB",
    "coord": {
      "lon": -1.36667,
      "lat": 53.150002
    }
  },
  {
    "id": 2640291,
    "name": "Pillaton",
    "country": "GB",
    "coord": {
      "lon": -4.3,
      "lat": 50.450001
    }
  },
  {
    "id": 2640307,
    "name": "Pickworth",
    "country": "GB",
    "coord": {
      "lon": -0.53318,
      "lat": 52.713112
    }
  },
  {
    "id": 2640327,
    "name": "Pewsey",
    "country": "GB",
    "coord": {
      "lon": -1.76545,
      "lat": 51.338551
    }
  },
  {
    "id": 2640332,
    "name": "Petworth",
    "country": "GB",
    "coord": {
      "lon": -0.61,
      "lat": 50.986691
    }
  },
  {
    "id": 2640334,
    "name": "Petton",
    "country": "GB",
    "coord": {
      "lon": -2.83333,
      "lat": 52.833328
    }
  },
  {
    "id": 2640348,
    "name": "Petersfield",
    "country": "GB",
    "coord": {
      "lon": -0.93375,
      "lat": 51.004951
    }
  },
  {
    "id": 2640359,
    "name": "Pertenhall",
    "country": "GB",
    "coord": {
      "lon": -0.41448,
      "lat": 52.279339
    }
  },
  {
    "id": 2640360,
    "name": "Pershore",
    "country": "GB",
    "coord": {
      "lon": -2.07586,
      "lat": 52.111629
    }
  },
  {
    "id": 2640367,
    "name": "Perranporth",
    "country": "GB",
    "coord": {
      "lon": -5.15558,
      "lat": 50.343769
    }
  },
  {
    "id": 2640375,
    "name": "Peover Superior",
    "country": "GB",
    "coord": {
      "lon": -2.35,
      "lat": 53.25
    }
  },
  {
    "id": 2640389,
    "name": "Penybont",
    "country": "GB",
    "coord": {
      "lon": -3.3,
      "lat": 52.26667
    }
  },
  {
    "id": 2640393,
    "name": "Pentyrch",
    "country": "GB",
    "coord": {
      "lon": -3.295,
      "lat": 51.528889
    }
  },
  {
    "id": 2640413,
    "name": "Penryn",
    "country": "GB",
    "coord": {
      "lon": -5.10416,
      "lat": 50.168121
    }
  },
  {
    "id": 2640416,
    "name": "Penrith",
    "country": "GB",
    "coord": {
      "lon": -2.75757,
      "lat": 54.665791
    }
  },
  {
    "id": 2640455,
    "name": "Penllyn",
    "country": "GB",
    "coord": {
      "lon": -3.47889,
      "lat": 51.474442
    }
  },
  {
    "id": 2640460,
    "name": "Penkridge",
    "country": "GB",
    "coord": {
      "lon": -2.1156,
      "lat": 52.725559
    }
  },
  {
    "id": 2640463,
    "name": "Penistone",
    "country": "GB",
    "coord": {
      "lon": -1.63027,
      "lat": 53.525719
    }
  },
  {
    "id": 2640470,
    "name": "Pengam",
    "country": "GB",
    "coord": {
      "lon": -3.22694,
      "lat": 51.665279
    }
  },
  {
    "id": 2640482,
    "name": "Pencoyd",
    "country": "GB",
    "coord": {
      "lon": -2.7,
      "lat": 51.933331
    }
  },
  {
    "id": 2640484,
    "name": "Pencoed",
    "country": "GB",
    "coord": {
      "lon": -3.50016,
      "lat": 51.523708
    }
  },
  {
    "id": 2640490,
    "name": "Pencaitland",
    "country": "GB",
    "coord": {
      "lon": -2.8949,
      "lat": 55.907269
    }
  },
  {
    "id": 2640498,
    "name": "Pembury",
    "country": "GB",
    "coord": {
      "lon": 0.32187,
      "lat": 51.14296
    }
  },
  {
    "id": 2640502,
    "name": "Pembroke Dock",
    "country": "GB",
    "coord": {
      "lon": -4.94036,
      "lat": 51.691608
    }
  },
  {
    "id": 2640503,
    "name": "Pembroke",
    "country": "GB",
    "coord": {
      "lon": -4.91286,
      "lat": 51.674641
    }
  },
  {
    "id": 2640511,
    "name": "Pelton",
    "country": "GB",
    "coord": {
      "lon": -1.6095,
      "lat": 54.873051
    }
  },
  {
    "id": 2640512,
    "name": "Pelsall",
    "country": "GB",
    "coord": {
      "lon": -1.96738,
      "lat": 52.629101
    }
  },
  {
    "id": 2640517,
    "name": "Pegswood",
    "country": "GB",
    "coord": {
      "lon": -1.64525,
      "lat": 55.179298
    }
  },
  {
    "id": 2640545,
    "name": "Peakirk",
    "country": "GB",
    "coord": {
      "lon": -0.27294,
      "lat": 52.645672
    }
  },
  {
    "id": 2640561,
    "name": "Paull",
    "country": "GB",
    "coord": {
      "lon": -0.23303,
      "lat": 53.720081
    }
  },
  {
    "id": 2640566,
    "name": "Pattingham",
    "country": "GB",
    "coord": {
      "lon": -2.26538,
      "lat": 52.5891
    }
  },
  {
    "id": 2640571,
    "name": "Patrington",
    "country": "GB",
    "coord": {
      "lon": -0.0133,
      "lat": 53.683949
    }
  },
  {
    "id": 2640574,
    "name": "Patna",
    "country": "GB",
    "coord": {
      "lon": -4.50457,
      "lat": 55.363701
    }
  },
  {
    "id": 2640589,
    "name": "Partridge Green",
    "country": "GB",
    "coord": {
      "lon": -0.30796,
      "lat": 50.9594
    }
  },
  {
    "id": 2640593,
    "name": "Partington",
    "country": "GB",
    "coord": {
      "lon": -2.42815,
      "lat": 53.418839
    }
  },
  {
    "id": 2640601,
    "name": "Parkstone",
    "country": "GB",
    "coord": {
      "lon": -1.94492,
      "lat": 50.729939
    }
  },
  {
    "id": 2640621,
    "name": "Parbold",
    "country": "GB",
    "coord": {
      "lon": -2.77028,
      "lat": 53.59145
    }
  },
  {
    "id": 2640623,
    "name": "Par",
    "country": "GB",
    "coord": {
      "lon": -4.71085,
      "lat": 50.35392
    }
  },
  {
    "id": 2640624,
    "name": "Papworth Everard",
    "country": "GB",
    "coord": {
      "lon": -0.11827,
      "lat": 52.248932
    }
  },
  {
    "id": 2640646,
    "name": "Pant",
    "country": "GB",
    "coord": {
      "lon": -3.06667,
      "lat": 52.783329
    }
  },
  {
    "id": 2640651,
    "name": "Pannal",
    "country": "GB",
    "coord": {
      "lon": -1.53573,
      "lat": 53.960312
    }
  },
  {
    "id": 2640654,
    "name": "Pangbourne",
    "country": "GB",
    "coord": {
      "lon": -1.08519,
      "lat": 51.4837
    }
  },
  {
    "id": 2640678,
    "name": "Painswick",
    "country": "GB",
    "coord": {
      "lon": -2.19555,
      "lat": 51.785679
    }
  },
  {
    "id": 2640685,
    "name": "Padstow",
    "country": "GB",
    "coord": {
      "lon": -4.93664,
      "lat": 50.538849
    }
  },
  {
    "id": 2640687,
    "name": "Padiham",
    "country": "GB",
    "coord": {
      "lon": -2.31511,
      "lat": 53.801868
    }
  },
  {
    "id": 2640690,
    "name": "Paddock Wood",
    "country": "GB",
    "coord": {
      "lon": 0.38547,
      "lat": 51.17942
    }
  },
  {
    "id": 2640717,
    "name": "Oxted",
    "country": "GB",
    "coord": {
      "lon": -0.00601,
      "lat": 51.25687
    }
  },
  {
    "id": 2640731,
    "name": "Oxenhope",
    "country": "GB",
    "coord": {
      "lon": -1.95196,
      "lat": 53.812328
    }
  },
  {
    "id": 2640762,
    "name": "Overtown",
    "country": "GB",
    "coord": {
      "lon": -3.91667,
      "lat": 55.75
    }
  },
  {
    "id": 2640764,
    "name": "Overton",
    "country": "GB",
    "coord": {
      "lon": -2.93333,
      "lat": 52.966671
    }
  },
  {
    "id": 2640765,
    "name": "Overton",
    "country": "GB",
    "coord": {
      "lon": -1.26154,
      "lat": 51.243889
    }
  },
  {
    "id": 2640777,
    "name": "Over",
    "country": "GB",
    "coord": {
      "lon": -2.55,
      "lat": 53.183331
    }
  },
  {
    "id": 2640781,
    "name": "Outwell",
    "country": "GB",
    "coord": {
      "lon": 0.23333,
      "lat": 52.609459
    }
  },
  {
    "id": 2640825,
    "name": "Oundle",
    "country": "GB",
    "coord": {
      "lon": -0.46732,
      "lat": 52.48093
    }
  },
  {
    "id": 2640832,
    "name": "Oughtibridge",
    "country": "GB",
    "coord": {
      "lon": -1.53902,
      "lat": 53.436119
    }
  },
  {
    "id": 2640833,
    "name": "Ottringham",
    "country": "GB",
    "coord": {
      "lon": -0.07909,
      "lat": 53.70092
    }
  },
  {
    "id": 2640834,
    "name": "Ottery Saint Mary",
    "country": "GB",
    "coord": {
      "lon": -3.26667,
      "lat": 50.75
    }
  },
  {
    "id": 2640840,
    "name": "Ottershaw",
    "country": "GB",
    "coord": {
      "lon": -0.52752,
      "lat": 51.362621
    }
  },
  {
    "id": 2640852,
    "name": "Otterburn",
    "country": "GB",
    "coord": {
      "lon": -2.16667,
      "lat": 55.216671
    }
  },
  {
    "id": 2640857,
    "name": "Otley",
    "country": "GB",
    "coord": {
      "lon": -1.69383,
      "lat": 53.905529
    }
  },
  {
    "id": 2640910,
    "name": "Ormiston",
    "country": "GB",
    "coord": {
      "lon": -2.93985,
      "lat": 55.913021
    }
  },
  {
    "id": 2640912,
    "name": "Ormesby Saint Margaret",
    "country": "GB",
    "coord": {
      "lon": 1.7,
      "lat": 52.666672
    }
  },
  {
    "id": 2640920,
    "name": "Orleton",
    "country": "GB",
    "coord": {
      "lon": -2.75,
      "lat": 52.299999
    }
  },
  {
    "id": 2640928,
    "name": "Orgreave",
    "country": "GB",
    "coord": {
      "lon": -1.36667,
      "lat": 53.383331
    }
  },
  {
    "id": 2640981,
    "name": "Old Windsor",
    "country": "GB",
    "coord": {
      "lon": -0.58674,
      "lat": 51.458069
    }
  },
  {
    "id": 2641007,
    "name": "Oldmeldrum",
    "country": "GB",
    "coord": {
      "lon": -2.3199,
      "lat": 57.334919
    }
  },
  {
    "id": 2641014,
    "name": "Old Kilpatrick",
    "country": "GB",
    "coord": {
      "lon": -4.45567,
      "lat": 55.922409
    }
  },
  {
    "id": 2641036,
    "name": "Oldbury",
    "country": "GB",
    "coord": {
      "lon": -2.01667,
      "lat": 52.5
    }
  },
  {
    "id": 2641049,
    "name": "Okehampton",
    "country": "GB",
    "coord": {
      "lon": -4.0016,
      "lat": 50.738411
    }
  },
  {
    "id": 2641079,
    "name": "Odiham",
    "country": "GB",
    "coord": {
      "lon": -0.93933,
      "lat": 51.25407
    }
  },
  {
    "id": 2641084,
    "name": "Odell",
    "country": "GB",
    "coord": {
      "lon": -0.5888,
      "lat": 52.20937
    }
  },
  {
    "id": 2641088,
    "name": "Ocle Pychard",
    "country": "GB",
    "coord": {
      "lon": -2.6,
      "lat": 52.116669
    }
  },
  {
    "id": 2641108,
    "name": "Oban",
    "country": "GB",
    "coord": {
      "lon": -5.47062,
      "lat": 56.412689
    }
  },
  {
    "id": 2641120,
    "name": "Oakley",
    "country": "GB",
    "coord": {
      "lon": -3.55,
      "lat": 56.066669
    }
  },
  {
    "id": 2641121,
    "name": "Oakley",
    "country": "GB",
    "coord": {
      "lon": -0.52649,
      "lat": 52.168621
    }
  },
  {
    "id": 2641128,
    "name": "Oakham",
    "country": "GB",
    "coord": {
      "lon": -0.73333,
      "lat": 52.666672
    }
  },
  {
    "id": 2641130,
    "name": "Oakengates",
    "country": "GB",
    "coord": {
      "lon": -2.45036,
      "lat": 52.695011
    }
  },
  {
    "id": 2641148,
    "name": "Nunthorpe",
    "country": "GB",
    "coord": {
      "lon": -1.18438,
      "lat": 54.528801
    }
  },
  {
    "id": 2641167,
    "name": "Notton",
    "country": "GB",
    "coord": {
      "lon": -1.48333,
      "lat": 53.599998
    }
  },
  {
    "id": 2641193,
    "name": "Norton Canes",
    "country": "GB",
    "coord": {
      "lon": -1.96262,
      "lat": 52.671421
    }
  },
  {
    "id": 2641199,
    "name": "Norton",
    "country": "GB",
    "coord": {
      "lon": -1.18333,
      "lat": 53.633331
    }
  },
  {
    "id": 2641207,
    "name": "Norton",
    "country": "GB",
    "coord": {
      "lon": -2.165,
      "lat": 51.559441
    }
  },
  {
    "id": 2641233,
    "name": "North Walsham",
    "country": "GB",
    "coord": {
      "lon": 1.38746,
      "lat": 52.821209
    }
  },
  {
    "id": 2641253,
    "name": "North Sunderland",
    "country": "GB",
    "coord": {
      "lon": -1.66436,
      "lat": 55.576881
    }
  },
  {
    "id": 2641280,
    "name": "North Queensferry",
    "country": "GB",
    "coord": {
      "lon": -3.39134,
      "lat": 56.008991
    }
  },
  {
    "id": 2641284,
    "name": "North Petherton",
    "country": "GB",
    "coord": {
      "lon": -3.01549,
      "lat": 51.09243
    }
  },
  {
    "id": 2641287,
    "name": "Northorpe",
    "country": "GB",
    "coord": {
      "lon": -0.65,
      "lat": 53.466671
    }
  },
  {
    "id": 2641310,
    "name": "North Luffenham",
    "country": "GB",
    "coord": {
      "lon": -0.61987,
      "lat": 52.621078
    }
  },
  {
    "id": 2641315,
    "name": "North Leigh",
    "country": "GB",
    "coord": {
      "lon": -1.44144,
      "lat": 51.81432
    }
  },
  {
    "id": 2641318,
    "name": "Northleach",
    "country": "GB",
    "coord": {
      "lon": -1.83712,
      "lat": 51.829941
    }
  },
  {
    "id": 2641337,
    "name": "North Hill",
    "country": "GB",
    "coord": {
      "lon": -4.43333,
      "lat": 50.549999
    }
  },
  {
    "id": 2641356,
    "name": "North Ferriby",
    "country": "GB",
    "coord": {
      "lon": -0.5052,
      "lat": 53.721241
    }
  },
  {
    "id": 2641370,
    "name": "North Elmham",
    "country": "GB",
    "coord": {
      "lon": 0.94611,
      "lat": 52.746399
    }
  },
  {
    "id": 2641404,
    "name": "North Cave",
    "country": "GB",
    "coord": {
      "lon": -0.64965,
      "lat": 53.780121
    }
  },
  {
    "id": 2641413,
    "name": "North Bradley",
    "country": "GB",
    "coord": {
      "lon": -2.20472,
      "lat": 51.294998
    }
  },
  {
    "id": 2641416,
    "name": "Northborough",
    "country": "GB",
    "coord": {
      "lon": -0.29818,
      "lat": 52.65868
    }
  },
  {
    "id": 2641419,
    "name": "North Berwick",
    "country": "GB",
    "coord": {
      "lon": -2.7229,
      "lat": 56.05825
    }
  },
  {
    "id": 2641434,
    "name": "Northam",
    "country": "GB",
    "coord": {
      "lon": -4.21667,
      "lat": 51.033329
    }
  },
  {
    "id": 2641443,
    "name": "Normanton",
    "country": "GB",
    "coord": {
      "lon": -1.41667,
      "lat": 53.700001
    }
  },
  {
    "id": 2641447,
    "name": "Normandy",
    "country": "GB",
    "coord": {
      "lon": -0.67472,
      "lat": 51.257511
    }
  },
  {
    "id": 2641465,
    "name": "Norbury",
    "country": "GB",
    "coord": {
      "lon": -2.95,
      "lat": 52.533329
    }
  },
  {
    "id": 2641480,
    "name": "Niton",
    "country": "GB",
    "coord": {
      "lon": -1.28489,
      "lat": 50.587021
    }
  },
  {
    "id": 2641506,
    "name": "Neyland",
    "country": "GB",
    "coord": {
      "lon": -4.95155,
      "lat": 51.71014
    }
  },
  {
    "id": 2641510,
    "name": "New Tredegar",
    "country": "GB",
    "coord": {
      "lon": -3.2413,
      "lat": 51.720509
    }
  },
  {
    "id": 2641513,
    "name": "Newtown Saint Boswells",
    "country": "GB",
    "coord": {
      "lon": -2.68333,
      "lat": 55.583328
    }
  },
  {
    "id": 2641523,
    "name": "Newtown",
    "country": "GB",
    "coord": {
      "lon": -3.3,
      "lat": 52.51667
    }
  },
  {
    "id": 2641528,
    "name": "Newton Stewart",
    "country": "GB",
    "coord": {
      "lon": -4.48315,
      "lat": 54.95784
    }
  },
  {
    "id": 2641536,
    "name": "Newton Poppleford",
    "country": "GB",
    "coord": {
      "lon": -3.29586,
      "lat": 50.700001
    }
  },
  {
    "id": 2641549,
    "name": "Newtonhill",
    "country": "GB",
    "coord": {
      "lon": -2.15,
      "lat": 57.033329
    }
  },
  {
    "id": 2641577,
    "name": "New Scone",
    "country": "GB",
    "coord": {
      "lon": -3.40507,
      "lat": 56.419418
    }
  },
  {
    "id": 2641582,
    "name": "New Romney",
    "country": "GB",
    "coord": {
      "lon": 0.94122,
      "lat": 50.985989
    }
  },
  {
    "id": 2641588,
    "name": "New Quay",
    "country": "GB",
    "coord": {
      "lon": -4.35887,
      "lat": 52.215149
    }
  },
  {
    "id": 2641593,
    "name": "Newport-On-Tay",
    "country": "GB",
    "coord": {
      "lon": -2.9367,
      "lat": 56.43911
    }
  },
  {
    "id": 2641594,
    "name": "Newport",
    "country": "GB",
    "coord": {
      "lon": -0.69986,
      "lat": 53.763329
    }
  },
  {
    "id": 2641595,
    "name": "Newport",
    "country": "GB",
    "coord": {
      "lon": -2.38333,
      "lat": 52.783329
    }
  },
  {
    "id": 2641596,
    "name": "Newport",
    "country": "GB",
    "coord": {
      "lon": -4.83333,
      "lat": 52.01667
    }
  },
  {
    "id": 2641610,
    "name": "Newmilns",
    "country": "GB",
    "coord": {
      "lon": -4.32416,
      "lat": 55.60751
    }
  },
  {
    "id": 2641612,
    "name": "New Mills",
    "country": "GB",
    "coord": {
      "lon": -1.99986,
      "lat": 53.365921
    }
  },
  {
    "id": 2641618,
    "name": "Newmains",
    "country": "GB",
    "coord": {
      "lon": -3.88333,
      "lat": 55.76667
    }
  },
  {
    "id": 2641629,
    "name": "Newington",
    "country": "GB",
    "coord": {
      "lon": 0.66768,
      "lat": 51.352169
    }
  },
  {
    "id": 2641630,
    "name": "Newick",
    "country": "GB",
    "coord": {
      "lon": 0.01579,
      "lat": 50.975182
    }
  },
  {
    "id": 2641637,
    "name": "Newhaven",
    "country": "GB",
    "coord": {
      "lon": 0.05545,
      "lat": 50.796928
    }
  },
  {
    "id": 2641649,
    "name": "New Ferry",
    "country": "GB",
    "coord": {
      "lon": -2.99377,
      "lat": 53.360458
    }
  },
  {
    "id": 2641651,
    "name": "Newent",
    "country": "GB",
    "coord": {
      "lon": -2.40815,
      "lat": 51.933651
    }
  },
  {
    "id": 2641658,
    "name": "New Cumnock",
    "country": "GB",
    "coord": {
      "lon": -4.18458,
      "lat": 55.39563
    }
  },
  {
    "id": 2641691,
    "name": "Newburgh",
    "country": "GB",
    "coord": {
      "lon": -2,
      "lat": 57.299999
    }
  },
  {
    "id": 2641692,
    "name": "Newburgh",
    "country": "GB",
    "coord": {
      "lon": -3.25,
      "lat": 56.333328
    }
  },
  {
    "id": 2641698,
    "name": "Newbridge",
    "country": "GB",
    "coord": {
      "lon": -3.4,
      "lat": 55.933331
    }
  },
  {
    "id": 2641708,
    "name": "Newborough",
    "country": "GB",
    "coord": {
      "lon": -0.22333,
      "lat": 52.638901
    }
  },
  {
    "id": 2641710,
    "name": "Newbold Verdon",
    "country": "GB",
    "coord": {
      "lon": -1.3422,
      "lat": 52.629589
    }
  },
  {
    "id": 2641718,
    "name": "Newbiggin-by-the-Sea",
    "country": "GB",
    "coord": {
      "lon": -1.51469,
      "lat": 55.185322
    }
  },
  {
    "id": 2641722,
    "name": "Newbiggin",
    "country": "GB",
    "coord": {
      "lon": -2.13555,
      "lat": 54.641708
    }
  },
  {
    "id": 2641729,
    "name": "Newarthill",
    "country": "GB",
    "coord": {
      "lon": -3.93733,
      "lat": 55.815102
    }
  },
  {
    "id": 2641745,
    "name": "Nefyn",
    "country": "GB",
    "coord": {
      "lon": -4.5,
      "lat": 52.933331
    }
  },
  {
    "id": 2641747,
    "name": "Nevern",
    "country": "GB",
    "coord": {
      "lon": -4.80068,
      "lat": 52.023869
    }
  },
  {
    "id": 2641758,
    "name": "Nettleton",
    "country": "GB",
    "coord": {
      "lon": -2.2625,
      "lat": 51.50222
    }
  },
  {
    "id": 2641760,
    "name": "Nettleham",
    "country": "GB",
    "coord": {
      "lon": -0.48866,
      "lat": 53.266029
    }
  },
  {
    "id": 2641765,
    "name": "Netley",
    "country": "GB",
    "coord": {
      "lon": -1.35398,
      "lat": 50.876339
    }
  },
  {
    "id": 2641773,
    "name": "Netherton",
    "country": "GB",
    "coord": {
      "lon": -2.08333,
      "lat": 52.48333
    }
  },
  {
    "id": 2641776,
    "name": "Nether Poppleton",
    "country": "GB",
    "coord": {
      "lon": -1.15062,
      "lat": 53.98793
    }
  },
  {
    "id": 2641795,
    "name": "Neston",
    "country": "GB",
    "coord": {
      "lon": -3.05,
      "lat": 53.283329
    }
  },
  {
    "id": 2641811,
    "name": "Nelson",
    "country": "GB",
    "coord": {
      "lon": -3.28444,
      "lat": 51.653332
    }
  },
  {
    "id": 2641815,
    "name": "Neilston",
    "country": "GB",
    "coord": {
      "lon": -4.42637,
      "lat": 55.78574
    }
  },
  {
    "id": 2641827,
    "name": "Needingworth",
    "country": "GB",
    "coord": {
      "lon": -0.03116,
      "lat": 52.330509
    }
  },
  {
    "id": 2641828,
    "name": "Needham Market",
    "country": "GB",
    "coord": {
      "lon": 1.0516,
      "lat": 52.155499
    }
  },
  {
    "id": 2641833,
    "name": "Necton",
    "country": "GB",
    "coord": {
      "lon": 0.77539,
      "lat": 52.64994
    }
  },
  {
    "id": 2641861,
    "name": "Navenby",
    "country": "GB",
    "coord": {
      "lon": -0.52494,
      "lat": 53.1068
    }
  },
  {
    "id": 2641873,
    "name": "Nash",
    "country": "GB",
    "coord": {
      "lon": -2.94611,
      "lat": 51.548889
    }
  },
  {
    "id": 2641884,
    "name": "Narborough",
    "country": "GB",
    "coord": {
      "lon": -1.2,
      "lat": 52.566669
    }
  },
  {
    "id": 2641885,
    "name": "Narberth",
    "country": "GB",
    "coord": {
      "lon": -4.74275,
      "lat": 51.79784
    }
  },
  {
    "id": 2641892,
    "name": "Nantwich",
    "country": "GB",
    "coord": {
      "lon": -2.52051,
      "lat": 53.068779
    }
  },
  {
    "id": 2641912,
    "name": "Nailsworth",
    "country": "GB",
    "coord": {
      "lon": -2.2199,
      "lat": 51.693821
    }
  },
  {
    "id": 2641915,
    "name": "Nafferton",
    "country": "GB",
    "coord": {
      "lon": -0.38976,
      "lat": 54.019169
    }
  },
  {
    "id": 2641922,
    "name": "Mytholmroyd",
    "country": "GB",
    "coord": {
      "lon": -1.98258,
      "lat": 53.730652
    }
  },
  {
    "id": 2641945,
    "name": "Murton",
    "country": "GB",
    "coord": {
      "lon": -1.41667,
      "lat": 54.816669
    }
  },
  {
    "id": 2641965,
    "name": "Mundford",
    "country": "GB",
    "coord": {
      "lon": 0.65682,
      "lat": 52.512459
    }
  },
  {
    "id": 2641966,
    "name": "Mundesley",
    "country": "GB",
    "coord": {
      "lon": 1.39552,
      "lat": 52.86219
    }
  },
  {
    "id": 2641976,
    "name": "Mullion",
    "country": "GB",
    "coord": {
      "lon": -5.24248,
      "lat": 50.027061
    }
  },
  {
    "id": 2641997,
    "name": "Mulbarton",
    "country": "GB",
    "coord": {
      "lon": 1.23327,
      "lat": 52.559132
    }
  },
  {
    "id": 2642001,
    "name": "Muir of Ord",
    "country": "GB",
    "coord": {
      "lon": -4.45939,
      "lat": 57.51976
    }
  },
  {
    "id": 2642005,
    "name": "Muirkirk",
    "country": "GB",
    "coord": {
      "lon": -4.06551,
      "lat": 55.52272
    }
  },
  {
    "id": 2642006,
    "name": "Muirhead",
    "country": "GB",
    "coord": {
      "lon": -3.06667,
      "lat": 56.5
    }
  },
  {
    "id": 2642015,
    "name": "Muggleswick",
    "country": "GB",
    "coord": {
      "lon": -1.93333,
      "lat": 54.833328
    }
  },
  {
    "id": 2642054,
    "name": "Much Wenlock",
    "country": "GB",
    "coord": {
      "lon": -2.55749,
      "lat": 52.595821
    }
  },
  {
    "id": 2642057,
    "name": "Much Hadham",
    "country": "GB",
    "coord": {
      "lon": 0.07188,
      "lat": 51.854069
    }
  },
  {
    "id": 2642061,
    "name": "Much Birch",
    "country": "GB",
    "coord": {
      "lon": -2.72349,
      "lat": 51.971081
    }
  },
  {
    "id": 2642077,
    "name": "Moy",
    "country": "GB",
    "coord": {
      "lon": -6.66667,
      "lat": 54.450001
    }
  },
  {
    "id": 2642096,
    "name": "Mountsorrel",
    "country": "GB",
    "coord": {
      "lon": -1.15,
      "lat": 52.716671
    }
  },
  {
    "id": 2642116,
    "name": "Mountain Ash",
    "country": "GB",
    "coord": {
      "lon": -3.38008,
      "lat": 51.683609
    }
  },
  {
    "id": 2642126,
    "name": "Moulsoe",
    "country": "GB",
    "coord": {
      "lon": -0.67326,
      "lat": 52.068802
    }
  },
  {
    "id": 2642130,
    "name": "Mouldsworth",
    "country": "GB",
    "coord": {
      "lon": -2.73333,
      "lat": 53.23333
    }
  },
  {
    "id": 2642143,
    "name": "Mossley",
    "country": "GB",
    "coord": {
      "lon": -2.03462,
      "lat": 53.514542
    }
  },
  {
    "id": 2642148,
    "name": "Moss",
    "country": "GB",
    "coord": {
      "lon": -1.1,
      "lat": 53.616669
    }
  },
  {
    "id": 2642180,
    "name": "Morriston",
    "country": "GB",
    "coord": {
      "lon": -3.92941,
      "lat": 51.669949
    }
  },
  {
    "id": 2642182,
    "name": "Morpeth",
    "country": "GB",
    "coord": {
      "lon": -1.6912,
      "lat": 55.167648
    }
  },
  {
    "id": 2642200,
    "name": "Moreton in Marsh",
    "country": "GB",
    "coord": {
      "lon": -1.70297,
      "lat": 51.989639
    }
  },
  {
    "id": 2642235,
    "name": "Morcott",
    "country": "GB",
    "coord": {
      "lon": -0.63704,
      "lat": 52.596691
    }
  },
  {
    "id": 2642302,
    "name": "Montrose",
    "country": "GB",
    "coord": {
      "lon": -2.45,
      "lat": 56.700001
    }
  },
  {
    "id": 2642304,
    "name": "Montgomery",
    "country": "GB",
    "coord": {
      "lon": -3.14612,
      "lat": 52.561329
    }
  },
  {
    "id": 2642336,
    "name": "Monk Fryston",
    "country": "GB",
    "coord": {
      "lon": -1.23751,
      "lat": 53.7616
    }
  },
  {
    "id": 2642349,
    "name": "Moneymore",
    "country": "GB",
    "coord": {
      "lon": -6.66956,
      "lat": 54.692291
    }
  },
  {
    "id": 2642363,
    "name": "Mollington",
    "country": "GB",
    "coord": {
      "lon": -2.91667,
      "lat": 53.23333
    }
  },
  {
    "id": 2642372,
    "name": "Mold",
    "country": "GB",
    "coord": {
      "lon": -3.14143,
      "lat": 53.16674
    }
  },
  {
    "id": 2642376,
    "name": "Moira",
    "country": "GB",
    "coord": {
      "lon": -6.22822,
      "lat": 54.480209
    }
  },
  {
    "id": 2642384,
    "name": "Moffat",
    "country": "GB",
    "coord": {
      "lon": -3.44542,
      "lat": 55.332272
    }
  },
  {
    "id": 2642391,
    "name": "Moelfre",
    "country": "GB",
    "coord": {
      "lon": -4.23333,
      "lat": 53.349998
    }
  },
  {
    "id": 2642395,
    "name": "Modbury",
    "country": "GB",
    "coord": {
      "lon": -3.88684,
      "lat": 50.349571
    }
  },
  {
    "id": 2642402,
    "name": "Mochdre",
    "country": "GB",
    "coord": {
      "lon": -3.36667,
      "lat": 52.48333
    }
  },
  {
    "id": 2642404,
    "name": "Mobberley",
    "country": "GB",
    "coord": {
      "lon": -2.31667,
      "lat": 53.316669
    }
  },
  {
    "id": 2642410,
    "name": "Mitchel Troy",
    "country": "GB",
    "coord": {
      "lon": -2.73731,
      "lat": 51.787281
    }
  },
  {
    "id": 2642412,
    "name": "Mitcheldean",
    "country": "GB",
    "coord": {
      "lon": -2.4895,
      "lat": 51.864399
    }
  },
  {
    "id": 2642416,
    "name": "Mistley",
    "country": "GB",
    "coord": {
      "lon": 1.08254,
      "lat": 51.94331
    }
  },
  {
    "id": 2642417,
    "name": "Misterton",
    "country": "GB",
    "coord": {
      "lon": -0.85,
      "lat": 53.450001
    }
  },
  {
    "id": 2642430,
    "name": "Mintlaw",
    "country": "GB",
    "coord": {
      "lon": -2.00099,
      "lat": 57.524139
    }
  },
  {
    "id": 2642448,
    "name": "Minety",
    "country": "GB",
    "coord": {
      "lon": -1.95,
      "lat": 51.616669
    }
  },
  {
    "id": 2642450,
    "name": "Minehead",
    "country": "GB",
    "coord": {
      "lon": -3.47875,
      "lat": 51.20565
    }
  },
  {
    "id": 2642452,
    "name": "Minchinhampton",
    "country": "GB",
    "coord": {
      "lon": -2.18502,
      "lat": 51.706749
    }
  },
  {
    "id": 2642470,
    "name": "Milton Bryan",
    "country": "GB",
    "coord": {
      "lon": -0.58333,
      "lat": 51.950001
    }
  },
  {
    "id": 2642480,
    "name": "Milston",
    "country": "GB",
    "coord": {
      "lon": -1.76901,
      "lat": 51.206211
    }
  },
  {
    "id": 2642482,
    "name": "Milnthorpe",
    "country": "GB",
    "coord": {
      "lon": -2.76667,
      "lat": 54.216671
    }
  },
  {
    "id": 2642483,
    "name": "Milnrow",
    "country": "GB",
    "coord": {
      "lon": -2.11266,
      "lat": 53.611149
    }
  },
  {
    "id": 2642484,
    "name": "Milngavie",
    "country": "GB",
    "coord": {
      "lon": -4.32311,
      "lat": 55.940708
    }
  },
  {
    "id": 2642503,
    "name": "Millport",
    "country": "GB",
    "coord": {
      "lon": -4.92559,
      "lat": 55.753479
    }
  },
  {
    "id": 2642505,
    "name": "Millom",
    "country": "GB",
    "coord": {
      "lon": -3.272,
      "lat": 54.21072
    }
  },
  {
    "id": 2642511,
    "name": "Millisle",
    "country": "GB",
    "coord": {
      "lon": -5.52973,
      "lat": 54.60638
    }
  },
  {
    "id": 2642512,
    "name": "Millington",
    "country": "GB",
    "coord": {
      "lon": -0.73333,
      "lat": 53.950001
    }
  },
  {
    "id": 2642525,
    "name": "Millbrook",
    "country": "GB",
    "coord": {
      "lon": -0.52438,
      "lat": 52.038818
    }
  },
  {
    "id": 2642526,
    "name": "Millbrook",
    "country": "GB",
    "coord": {
      "lon": -4.18333,
      "lat": 50.366669
    }
  },
  {
    "id": 2642533,
    "name": "Milford on Sea",
    "country": "GB",
    "coord": {
      "lon": -1.59004,
      "lat": 50.725609
    }
  },
  {
    "id": 2642537,
    "name": "Milford",
    "country": "GB",
    "coord": {
      "lon": -0.65042,
      "lat": 51.172722
    }
  },
  {
    "id": 2642544,
    "name": "Mildenhall",
    "country": "GB",
    "coord": {
      "lon": -1.69988,
      "lat": 51.425598
    }
  },
  {
    "id": 2642549,
    "name": "Milborne Port",
    "country": "GB",
    "coord": {
      "lon": -2.46248,
      "lat": 50.966049
    }
  },
  {
    "id": 2642557,
    "name": "Midsomer Norton",
    "country": "GB",
    "coord": {
      "lon": -2.48591,
      "lat": 51.285671
    }
  },
  {
    "id": 2642567,
    "name": "Midhurst",
    "country": "GB",
    "coord": {
      "lon": -0.74003,
      "lat": 50.985592
    }
  },
  {
    "id": 2642573,
    "name": "Middlewich",
    "country": "GB",
    "coord": {
      "lon": -2.44402,
      "lat": 53.192959
    }
  },
  {
    "id": 2642603,
    "name": "Middlestown",
    "country": "GB",
    "coord": {
      "lon": -1.59762,
      "lat": 53.650791
    }
  },
  {
    "id": 2642632,
    "name": "Mid Calder",
    "country": "GB",
    "coord": {
      "lon": -3.48002,
      "lat": 55.892609
    }
  },
  {
    "id": 2642637,
    "name": "Mickle Trafford",
    "country": "GB",
    "coord": {
      "lon": -2.83225,
      "lat": 53.221458
    }
  },
  {
    "id": 2642638,
    "name": "Mickleton",
    "country": "GB",
    "coord": {
      "lon": -2.04998,
      "lat": 54.60807
    }
  },
  {
    "id": 2642639,
    "name": "Mickleton",
    "country": "GB",
    "coord": {
      "lon": -1.76667,
      "lat": 52.083328
    }
  },
  {
    "id": 2642687,
    "name": "Mevagissey",
    "country": "GB",
    "coord": {
      "lon": -4.79166,
      "lat": 50.273239
    }
  },
  {
    "id": 2642691,
    "name": "Methven",
    "country": "GB",
    "coord": {
      "lon": -3.58273,
      "lat": 56.415119
    }
  },
  {
    "id": 2642695,
    "name": "Metheringham",
    "country": "GB",
    "coord": {
      "lon": -0.40368,
      "lat": 53.140148
    }
  },
  {
    "id": 2642697,
    "name": "Messingham",
    "country": "GB",
    "coord": {
      "lon": -0.65385,
      "lat": 53.528278
    }
  },
  {
    "id": 2642727,
    "name": "Meriden",
    "country": "GB",
    "coord": {
      "lon": -1.64366,
      "lat": 52.437698
    }
  },
  {
    "id": 2642729,
    "name": "Mere",
    "country": "GB",
    "coord": {
      "lon": -2.41667,
      "lat": 53.333328
    }
  },
  {
    "id": 2642730,
    "name": "Mere",
    "country": "GB",
    "coord": {
      "lon": -2.26694,
      "lat": 51.08889
    }
  },
  {
    "id": 2642731,
    "name": "Meppershall",
    "country": "GB",
    "coord": {
      "lon": -0.33991,
      "lat": 52.017132
    }
  },
  {
    "id": 2642733,
    "name": "Meopham",
    "country": "GB",
    "coord": {
      "lon": 0.36007,
      "lat": 51.368439
    }
  },
  {
    "id": 2642743,
    "name": "Menston",
    "country": "GB",
    "coord": {
      "lon": -1.74395,
      "lat": 53.890411
    }
  },
  {
    "id": 2642755,
    "name": "Menai Bridge",
    "country": "GB",
    "coord": {
      "lon": -4.16926,
      "lat": 53.227749
    }
  },
  {
    "id": 2642766,
    "name": "Meltham",
    "country": "GB",
    "coord": {
      "lon": -1.85,
      "lat": 53.583328
    }
  },
  {
    "id": 2642782,
    "name": "Melling",
    "country": "GB",
    "coord": {
      "lon": -2.91667,
      "lat": 53.48333
    }
  },
  {
    "id": 2642786,
    "name": "Melksham",
    "country": "GB",
    "coord": {
      "lon": -2.14002,
      "lat": 51.37281
    }
  },
  {
    "id": 2642792,
    "name": "Meldreth",
    "country": "GB",
    "coord": {
      "lon": 0.00807,
      "lat": 52.09396
    }
  },
  {
    "id": 2642793,
    "name": "Meldon",
    "country": "GB",
    "coord": {
      "lon": -1.8,
      "lat": 55.133331
    }
  },
  {
    "id": 2642800,
    "name": "Melbourne",
    "country": "GB",
    "coord": {
      "lon": -0.85925,
      "lat": 53.88755
    }
  },
  {
    "id": 2642801,
    "name": "Melbourne",
    "country": "GB",
    "coord": {
      "lon": -1.42522,
      "lat": 52.821899
    }
  },
  {
    "id": 2642802,
    "name": "Melbourn",
    "country": "GB",
    "coord": {
      "lon": 0.01514,
      "lat": 52.08128
    }
  },
  {
    "id": 2642843,
    "name": "Measham",
    "country": "GB",
    "coord": {
      "lon": -1.50637,
      "lat": 52.70644
    }
  },
  {
    "id": 2642876,
    "name": "Mayfield",
    "country": "GB",
    "coord": {
      "lon": -1.76667,
      "lat": 53
    }
  },
  {
    "id": 2642882,
    "name": "Maybole",
    "country": "GB",
    "coord": {
      "lon": -4.68026,
      "lat": 55.35503
    }
  },
  {
    "id": 2642904,
    "name": "Mauchline",
    "country": "GB",
    "coord": {
      "lon": -4.37928,
      "lat": 55.516041
    }
  },
  {
    "id": 2642905,
    "name": "Mattishall",
    "country": "GB",
    "coord": {
      "lon": 1.0325,
      "lat": 52.65905
    }
  },
  {
    "id": 2642910,
    "name": "Matlock",
    "country": "GB",
    "coord": {
      "lon": -1.5556,
      "lat": 53.138378
    }
  },
  {
    "id": 2642911,
    "name": "Mathry",
    "country": "GB",
    "coord": {
      "lon": -5.08667,
      "lat": 51.946388
    }
  },
  {
    "id": 2642927,
    "name": "Maryport",
    "country": "GB",
    "coord": {
      "lon": -3.49509,
      "lat": 54.71434
    }
  },
  {
    "id": 2642947,
    "name": "Martock",
    "country": "GB",
    "coord": {
      "lon": -2.76684,
      "lat": 50.97361
    }
  },
  {
    "id": 2642959,
    "name": "Martham",
    "country": "GB",
    "coord": {
      "lon": 1.63636,
      "lat": 52.704639
    }
  },
  {
    "id": 2642962,
    "name": "Marstow",
    "country": "GB",
    "coord": {
      "lon": -2.65,
      "lat": 51.866669
    }
  },
  {
    "id": 2642963,
    "name": "Marston Moretaine",
    "country": "GB",
    "coord": {
      "lon": -0.54932,
      "lat": 52.064098
    }
  },
  {
    "id": 2642970,
    "name": "Marston",
    "country": "GB",
    "coord": {
      "lon": -2.5,
      "lat": 53.26667
    }
  },
  {
    "id": 2642980,
    "name": "Marshfield",
    "country": "GB",
    "coord": {
      "lon": -3.07306,
      "lat": 51.53389
    }
  },
  {
    "id": 2642981,
    "name": "Marshfield",
    "country": "GB",
    "coord": {
      "lon": -2.32,
      "lat": 51.461941
    }
  },
  {
    "id": 2642998,
    "name": "Marr",
    "country": "GB",
    "coord": {
      "lon": -1.22051,
      "lat": 53.542961
    }
  },
  {
    "id": 2643009,
    "name": "Marldon",
    "country": "GB",
    "coord": {
      "lon": -3.59678,
      "lat": 50.45512
    }
  },
  {
    "id": 2643010,
    "name": "Marlborough",
    "country": "GB",
    "coord": {
      "lon": -1.72751,
      "lat": 51.42062
    }
  },
  {
    "id": 2643011,
    "name": "Markyate",
    "country": "GB",
    "coord": {
      "lon": -0.46345,
      "lat": 51.838459
    }
  },
  {
    "id": 2643012,
    "name": "Marks Tey",
    "country": "GB",
    "coord": {
      "lon": 0.76424,
      "lat": 51.876282
    }
  },
  {
    "id": 2643019,
    "name": "Markfield",
    "country": "GB",
    "coord": {
      "lon": -1.27476,
      "lat": 52.687469
    }
  },
  {
    "id": 2643021,
    "name": "Market Weighton",
    "country": "GB",
    "coord": {
      "lon": -0.66505,
      "lat": 53.863098
    }
  },
  {
    "id": 2643023,
    "name": "Market Rasen",
    "country": "GB",
    "coord": {
      "lon": -0.33781,
      "lat": 53.387642
    }
  },
  {
    "id": 2643024,
    "name": "Market Overton",
    "country": "GB",
    "coord": {
      "lon": -0.6863,
      "lat": 52.73806
    }
  },
  {
    "id": 2643025,
    "name": "Market Lavington",
    "country": "GB",
    "coord": {
      "lon": -1.97729,
      "lat": 51.28756
    }
  },
  {
    "id": 2643028,
    "name": "Market Drayton",
    "country": "GB",
    "coord": {
      "lon": -2.49012,
      "lat": 52.90538
    }
  },
  {
    "id": 2643030,
    "name": "Market Bosworth",
    "country": "GB",
    "coord": {
      "lon": -1.40174,
      "lat": 52.624279
    }
  },
  {
    "id": 2643039,
    "name": "Marholm",
    "country": "GB",
    "coord": {
      "lon": -0.30824,
      "lat": 52.604691
    }
  },
  {
    "id": 2643060,
    "name": "Marden",
    "country": "GB",
    "coord": {
      "lon": 0.48855,
      "lat": 51.17482
    }
  },
  {
    "id": 2643070,
    "name": "Marcham",
    "country": "GB",
    "coord": {
      "lon": -1.34428,
      "lat": 51.668621
    }
  },
  {
    "id": 2643076,
    "name": "Marazion",
    "country": "GB",
    "coord": {
      "lon": -5.47505,
      "lat": 50.125561
    }
  },
  {
    "id": 2643079,
    "name": "Mappleton",
    "country": "GB",
    "coord": {
      "lon": -0.13664,
      "lat": 53.876869
    }
  },
  {
    "id": 2643089,
    "name": "Manton",
    "country": "GB",
    "coord": {
      "lon": -0.6,
      "lat": 53.51667
    }
  },
  {
    "id": 2643090,
    "name": "Manton",
    "country": "GB",
    "coord": {
      "lon": -0.70038,
      "lat": 52.632229
    }
  },
  {
    "id": 2643095,
    "name": "Manston",
    "country": "GB",
    "coord": {
      "lon": -2.26667,
      "lat": 50.950001
    }
  },
  {
    "id": 2643104,
    "name": "Manorbier",
    "country": "GB",
    "coord": {
      "lon": -4.79583,
      "lat": 51.645828
    }
  },
  {
    "id": 2643107,
    "name": "Manningtree",
    "country": "GB",
    "coord": {
      "lon": 1.06112,
      "lat": 51.945381
    }
  },
  {
    "id": 2643121,
    "name": "Manea",
    "country": "GB",
    "coord": {
      "lon": 0.17857,
      "lat": 52.48304
    }
  },
  {
    "id": 2643142,
    "name": "Malton",
    "country": "GB",
    "coord": {
      "lon": -0.79669,
      "lat": 54.134541
    }
  },
  {
    "id": 2643145,
    "name": "Malpas",
    "country": "GB",
    "coord": {
      "lon": -2.76667,
      "lat": 53.01667
    }
  },
  {
    "id": 2643146,
    "name": "Malmesbury",
    "country": "GB",
    "coord": {
      "lon": -2.09708,
      "lat": 51.581749
    }
  },
  {
    "id": 2643172,
    "name": "Mainstone",
    "country": "GB",
    "coord": {
      "lon": -3.08333,
      "lat": 52.48333
    }
  },
  {
    "id": 2643196,
    "name": "Magor",
    "country": "GB",
    "coord": {
      "lon": -2.83139,
      "lat": 51.579441
    }
  },
  {
    "id": 2643208,
    "name": "Magherafelt",
    "country": "GB",
    "coord": {
      "lon": -6.60656,
      "lat": 54.753559
    }
  },
  {
    "id": 2643211,
    "name": "Maghera",
    "country": "GB",
    "coord": {
      "lon": -6.67145,
      "lat": 54.843899
    }
  },
  {
    "id": 2643222,
    "name": "Maerdy",
    "country": "GB",
    "coord": {
      "lon": -3.48667,
      "lat": 51.675282
    }
  },
  {
    "id": 2643235,
    "name": "Madeley",
    "country": "GB",
    "coord": {
      "lon": -2.43333,
      "lat": 52.633331
    }
  },
  {
    "id": 2643247,
    "name": "Macmerry",
    "country": "GB",
    "coord": {
      "lon": -2.90503,
      "lat": 55.940449
    }
  },
  {
    "id": 2643251,
    "name": "Machynlleth",
    "country": "GB",
    "coord": {
      "lon": -3.85051,
      "lat": 52.590969
    }
  },
  {
    "id": 2643259,
    "name": "Machen",
    "country": "GB",
    "coord": {
      "lon": -3.1419,
      "lat": 51.595989
    }
  },
  {
    "id": 2643262,
    "name": "Macduff",
    "country": "GB",
    "coord": {
      "lon": -2.49686,
      "lat": 57.67012
    }
  },
  {
    "id": 2643276,
    "name": "Lytchett Matravers",
    "country": "GB",
    "coord": {
      "lon": -2.07806,
      "lat": 50.758259
    }
  },
  {
    "id": 2643298,
    "name": "Lyneham",
    "country": "GB",
    "coord": {
      "lon": -1.96667,
      "lat": 51.51667
    }
  },
  {
    "id": 2643304,
    "name": "Lyndhurst",
    "country": "GB",
    "coord": {
      "lon": -1.57662,
      "lat": 50.872589
    }
  },
  {
    "id": 2643309,
    "name": "Lymm",
    "country": "GB",
    "coord": {
      "lon": -2.47763,
      "lat": 53.38105
    }
  },
  {
    "id": 2643313,
    "name": "Lyminge",
    "country": "GB",
    "coord": {
      "lon": 1.08896,
      "lat": 51.129509
    }
  },
  {
    "id": 2643318,
    "name": "Lydney",
    "country": "GB",
    "coord": {
      "lon": -2.52605,
      "lat": 51.725979
    }
  },
  {
    "id": 2643321,
    "name": "Lydiard Tregoze",
    "country": "GB",
    "coord": {
      "lon": -1.85,
      "lat": 51.549999
    }
  },
  {
    "id": 2643323,
    "name": "Lydham",
    "country": "GB",
    "coord": {
      "lon": -2.9797,
      "lat": 52.514759
    }
  },
  {
    "id": 2643327,
    "name": "Lydd",
    "country": "GB",
    "coord": {
      "lon": 0.9074,
      "lat": 50.952259
    }
  },
  {
    "id": 2643329,
    "name": "Lydbrook",
    "country": "GB",
    "coord": {
      "lon": -2.57818,
      "lat": 51.837631
    }
  },
  {
    "id": 2643337,
    "name": "Lutterworth",
    "country": "GB",
    "coord": {
      "lon": -1.20218,
      "lat": 52.456341
    }
  },
  {
    "id": 2643385,
    "name": "Lundin Links",
    "country": "GB",
    "coord": {
      "lon": -2.95296,
      "lat": 56.212399
    }
  },
  {
    "id": 2643390,
    "name": "Lund",
    "country": "GB",
    "coord": {
      "lon": -0.52211,
      "lat": 53.919201
    }
  },
  {
    "id": 2643391,
    "name": "Luncarty",
    "country": "GB",
    "coord": {
      "lon": -3.47007,
      "lat": 56.453079
    }
  },
  {
    "id": 2643425,
    "name": "Ludlow",
    "country": "GB",
    "coord": {
      "lon": -2.71311,
      "lat": 52.37431
    }
  },
  {
    "id": 2643437,
    "name": "Luddenden Foot",
    "country": "GB",
    "coord": {
      "lon": -1.94582,
      "lat": 53.718731
    }
  },
  {
    "id": 2643443,
    "name": "Luckington",
    "country": "GB",
    "coord": {
      "lon": -2.24222,
      "lat": 51.55444
    }
  },
  {
    "id": 2643482,
    "name": "Lowick",
    "country": "GB",
    "coord": {
      "lon": -1.96667,
      "lat": 55.633331
    }
  },
  {
    "id": 2643533,
    "name": "Lower Bullingham",
    "country": "GB",
    "coord": {
      "lon": -2.7,
      "lat": 52.033329
    }
  },
  {
    "id": 2643543,
    "name": "Lowdham",
    "country": "GB",
    "coord": {
      "lon": -1.00483,
      "lat": 53.012051
    }
  },
  {
    "id": 2643548,
    "name": "Low Ackworth",
    "country": "GB",
    "coord": {
      "lon": -1.32334,
      "lat": 53.65023
    }
  },
  {
    "id": 2643557,
    "name": "Loughton",
    "country": "GB",
    "coord": {
      "lon": -0.78642,
      "lat": 52.030369
    }
  },
  {
    "id": 2643583,
    "name": "Lostwithiel",
    "country": "GB",
    "coord": {
      "lon": -4.67023,
      "lat": 50.407841
    }
  },
  {
    "id": 2643587,
    "name": "Lossiemouth",
    "country": "GB",
    "coord": {
      "lon": -3.28341,
      "lat": 57.721359
    }
  },
  {
    "id": 2643618,
    "name": "Longtown",
    "country": "GB",
    "coord": {
      "lon": -2.98333,
      "lat": 51.950001
    }
  },
  {
    "id": 2643620,
    "name": "Longton",
    "country": "GB",
    "coord": {
      "lon": -2.13333,
      "lat": 52.98333
    }
  },
  {
    "id": 2643628,
    "name": "Long Stratton",
    "country": "GB",
    "coord": {
      "lon": 1.23478,
      "lat": 52.488029
    }
  },
  {
    "id": 2643646,
    "name": "Longridge",
    "country": "GB",
    "coord": {
      "lon": -2.58333,
      "lat": 53.833328
    }
  },
  {
    "id": 2643651,
    "name": "Longnor",
    "country": "GB",
    "coord": {
      "lon": -2.75,
      "lat": 52.599998
    }
  },
  {
    "id": 2643652,
    "name": "Longniddry",
    "country": "GB",
    "coord": {
      "lon": -2.89593,
      "lat": 55.97543
    }
  },
  {
    "id": 2643661,
    "name": "Long Melford",
    "country": "GB",
    "coord": {
      "lon": 0.71639,
      "lat": 52.07481
    }
  },
  {
    "id": 2643673,
    "name": "Long Lawford",
    "country": "GB",
    "coord": {
      "lon": -1.30716,
      "lat": 52.38176
    }
  },
  {
    "id": 2643674,
    "name": "Long Itchington",
    "country": "GB",
    "coord": {
      "lon": -1.39243,
      "lat": 52.283958
    }
  },
  {
    "id": 2643704,
    "name": "Longdendale",
    "country": "GB",
    "coord": {
      "lon": -2,
      "lat": 53.466671
    }
  },
  {
    "id": 2643707,
    "name": "Long Crendon",
    "country": "GB",
    "coord": {
      "lon": -0.99684,
      "lat": 51.772942
    }
  },
  {
    "id": 2643714,
    "name": "Long Buckby",
    "country": "GB",
    "coord": {
      "lon": -1.08113,
      "lat": 52.302601
    }
  },
  {
    "id": 2643720,
    "name": "Long Bennington",
    "country": "GB",
    "coord": {
      "lon": -0.75803,
      "lat": 52.993141
    }
  },
  {
    "id": 2643726,
    "name": "Long Ashton",
    "country": "GB",
    "coord": {
      "lon": -2.66098,
      "lat": 51.42997
    }
  },
  {
    "id": 2643745,
    "name": "Londesborough",
    "country": "GB",
    "coord": {
      "lon": -0.68333,
      "lat": 53.883331
    }
  },
  {
    "id": 2643773,
    "name": "Loftus",
    "country": "GB",
    "coord": {
      "lon": -0.89459,
      "lat": 54.555431
    }
  },
  {
    "id": 2643783,
    "name": "Loddon",
    "country": "GB",
    "coord": {
      "lon": 1.48183,
      "lat": 52.5327
    }
  },
  {
    "id": 2643788,
    "name": "Lockington",
    "country": "GB",
    "coord": {
      "lon": -0.48572,
      "lat": 53.91415
    }
  },
  {
    "id": 2643791,
    "name": "Lockerbie",
    "country": "GB",
    "coord": {
      "lon": -3.35635,
      "lat": 55.12302
    }
  },
  {
    "id": 2643797,
    "name": "Lochwinnoch",
    "country": "GB",
    "coord": {
      "lon": -4.63034,
      "lat": 55.795212
    }
  },
  {
    "id": 2643825,
    "name": "Lochgilphead",
    "country": "GB",
    "coord": {
      "lon": -5.43206,
      "lat": 56.03796
    }
  },
  {
    "id": 2643827,
    "name": "Lochgelly",
    "country": "GB",
    "coord": {
      "lon": -3.30964,
      "lat": 56.128262
    }
  },
  {
    "id": 2643862,
    "name": "Loanhead",
    "country": "GB",
    "coord": {
      "lon": -3.15874,
      "lat": 55.879452
    }
  },
  {
    "id": 2643889,
    "name": "Lledrod",
    "country": "GB",
    "coord": {
      "lon": -3.98333,
      "lat": 52.299999
    }
  },
  {
    "id": 2643913,
    "name": "Llanwnda",
    "country": "GB",
    "coord": {
      "lon": -4.27832,
      "lat": 53.09959
    }
  },
  {
    "id": 2643916,
    "name": "Llanwern",
    "country": "GB",
    "coord": {
      "lon": -2.91361,
      "lat": 51.58889
    }
  },
  {
    "id": 2643925,
    "name": "Llanveynoe",
    "country": "GB",
    "coord": {
      "lon": -3,
      "lat": 51.966671
    }
  },
  {
    "id": 2643933,
    "name": "Llantwit Major",
    "country": "GB",
    "coord": {
      "lon": -3.48632,
      "lat": 51.410702
    }
  },
  {
    "id": 2643934,
    "name": "Llantwit Fardre",
    "country": "GB",
    "coord": {
      "lon": -3.33241,
      "lat": 51.5546
    }
  },
  {
    "id": 2643937,
    "name": "Llantrisant",
    "country": "GB",
    "coord": {
      "lon": -3.37389,
      "lat": 51.540279
    }
  },
  {
    "id": 2643942,
    "name": "Llansteffan",
    "country": "GB",
    "coord": {
      "lon": -4.39139,
      "lat": 51.772221
    }
  },
  {
    "id": 2643947,
    "name": "Llansawel",
    "country": "GB",
    "coord": {
      "lon": -4.01667,
      "lat": 52
    }
  },
  {
    "id": 2643951,
    "name": "Llansantffraid Glan Conwy",
    "country": "GB",
    "coord": {
      "lon": -3.8,
      "lat": 53.26667
    }
  },
  {
    "id": 2643955,
    "name": "Llansadwrn",
    "country": "GB",
    "coord": {
      "lon": -3.9,
      "lat": 51.950001
    }
  },
  {
    "id": 2643957,
    "name": "Llanrwst",
    "country": "GB",
    "coord": {
      "lon": -3.79527,
      "lat": 53.140209
    }
  },
  {
    "id": 2643959,
    "name": "Llanrothal",
    "country": "GB",
    "coord": {
      "lon": -2.76667,
      "lat": 51.866669
    }
  },
  {
    "id": 2643960,
    "name": "Llanrhian",
    "country": "GB",
    "coord": {
      "lon": -5.17389,
      "lat": 51.9375
    }
  },
  {
    "id": 2643979,
    "name": "Llanllwchaiarn",
    "country": "GB",
    "coord": {
      "lon": -4.36667,
      "lat": 52.183331
    }
  },
  {
    "id": 2643990,
    "name": "Llanidloes",
    "country": "GB",
    "coord": {
      "lon": -3.53997,
      "lat": 52.449772
    }
  },
  {
    "id": 2643993,
    "name": "Llanharry",
    "country": "GB",
    "coord": {
      "lon": -3.4324,
      "lat": 51.514221
    }
  },
  {
    "id": 2643994,
    "name": "Llanharan",
    "country": "GB",
    "coord": {
      "lon": -3.43906,
      "lat": 51.538052
    }
  },
  {
    "id": 2643997,
    "name": "Llangynog",
    "country": "GB",
    "coord": {
      "lon": -3.4,
      "lat": 52.833328
    }
  },
  {
    "id": 2644006,
    "name": "Llangybi",
    "country": "GB",
    "coord": {
      "lon": -4.05,
      "lat": 52.150002
    }
  },
  {
    "id": 2644010,
    "name": "Llangwm",
    "country": "GB",
    "coord": {
      "lon": -2.83,
      "lat": 51.69611
    }
  },
  {
    "id": 2644011,
    "name": "Llangwm",
    "country": "GB",
    "coord": {
      "lon": -3.53333,
      "lat": 52.98333
    }
  },
  {
    "id": 2644021,
    "name": "Llangollen",
    "country": "GB",
    "coord": {
      "lon": -3.17127,
      "lat": 52.968288
    }
  },
  {
    "id": 2644022,
    "name": "Llangoed",
    "country": "GB",
    "coord": {
      "lon": -4.08333,
      "lat": 53.283329
    }
  },
  {
    "id": 2644025,
    "name": "Llangybi",
    "country": "GB",
    "coord": {
      "lon": -2.90806,
      "lat": 51.665829
    }
  },
  {
    "id": 2644037,
    "name": "Llangefni",
    "country": "GB",
    "coord": {
      "lon": -4.31063,
      "lat": 53.255611
    }
  },
  {
    "id": 2644044,
    "name": "Llangan",
    "country": "GB",
    "coord": {
      "lon": -3.50056,
      "lat": 51.486938
    }
  },
  {
    "id": 2644046,
    "name": "Llangain",
    "country": "GB",
    "coord": {
      "lon": -4.3475,
      "lat": 51.818329
    }
  },
  {
    "id": 2644052,
    "name": "Llanfynydd",
    "country": "GB",
    "coord": {
      "lon": -4.09889,
      "lat": 51.928059
    }
  },
  {
    "id": 2644075,
    "name": "Llanfechain",
    "country": "GB",
    "coord": {
      "lon": -3.20273,
      "lat": 52.774632
    }
  },
  {
    "id": 2644080,
    "name": "Llanfairpwllgwyngyll",
    "country": "GB",
    "coord": {
      "lon": -4.20329,
      "lat": 53.221409
    }
  },
  {
    "id": 2644086,
    "name": "Llanfair",
    "country": "GB",
    "coord": {
      "lon": -4.11541,
      "lat": 52.844151
    }
  },
  {
    "id": 2644087,
    "name": "Llanfaethlu",
    "country": "GB",
    "coord": {
      "lon": -4.53418,
      "lat": 53.352402
    }
  },
  {
    "id": 2644093,
    "name": "Llanfachraeth",
    "country": "GB",
    "coord": {
      "lon": -4.53092,
      "lat": 53.312061
    }
  },
  {
    "id": 2644107,
    "name": "Llandysul",
    "country": "GB",
    "coord": {
      "lon": -4.30909,
      "lat": 52.04166
    }
  },
  {
    "id": 2644115,
    "name": "Llandybie",
    "country": "GB",
    "coord": {
      "lon": -4.0071,
      "lat": 51.820438
    }
  },
  {
    "id": 2644122,
    "name": "Llandrindod Wells",
    "country": "GB",
    "coord": {
      "lon": -3.37868,
      "lat": 52.241638
    }
  },
  {
    "id": 2644124,
    "name": "Llandrillo",
    "country": "GB",
    "coord": {
      "lon": -3.4376,
      "lat": 52.922771
    }
  },
  {
    "id": 2644125,
    "name": "Llanddowror",
    "country": "GB",
    "coord": {
      "lon": -4.53139,
      "lat": 51.80167
    }
  },
  {
    "id": 2644127,
    "name": "Llandovery",
    "country": "GB",
    "coord": {
      "lon": -3.79637,
      "lat": 51.994148
    }
  },
  {
    "id": 2644135,
    "name": "Llandeilo",
    "country": "GB",
    "coord": {
      "lon": -3.99154,
      "lat": 51.88459
    }
  },
  {
    "id": 2644155,
    "name": "Llanddeusant",
    "country": "GB",
    "coord": {
      "lon": -3.78333,
      "lat": 51.900002
    }
  },
  {
    "id": 2644158,
    "name": "Llanddarog",
    "country": "GB",
    "coord": {
      "lon": -4.17444,
      "lat": 51.827221
    }
  },
  {
    "id": 2644162,
    "name": "Llancillo",
    "country": "GB",
    "coord": {
      "lon": -2.93333,
      "lat": 51.916672
    }
  },
  {
    "id": 2644167,
    "name": "Llanbradach",
    "country": "GB",
    "coord": {
      "lon": -3.23028,
      "lat": 51.606392
    }
  },
  {
    "id": 2644172,
    "name": "Llanberis",
    "country": "GB",
    "coord": {
      "lon": -4.13017,
      "lat": 53.119221
    }
  },
  {
    "id": 2644176,
    "name": "Llanbedr",
    "country": "GB",
    "coord": {
      "lon": -4.1,
      "lat": 52.816669
    }
  },
  {
    "id": 2644180,
    "name": "Llanbadoc",
    "country": "GB",
    "coord": {
      "lon": -2.90361,
      "lat": 51.695
    }
  },
  {
    "id": 2644187,
    "name": "Llanarth",
    "country": "GB",
    "coord": {
      "lon": -4.3,
      "lat": 52.183331
    }
  },
  {
    "id": 2644188,
    "name": "Llanarth",
    "country": "GB",
    "coord": {
      "lon": -2.9,
      "lat": 51.783329
    }
  },
  {
    "id": 2644207,
    "name": "Liversedge",
    "country": "GB",
    "coord": {
      "lon": -1.69327,
      "lat": 53.705139
    }
  },
  {
    "id": 2644268,
    "name": "Littleport",
    "country": "GB",
    "coord": {
      "lon": 0.30603,
      "lat": 52.45784
    }
  },
  {
    "id": 2644271,
    "name": "Little Paxton",
    "country": "GB",
    "coord": {
      "lon": -0.25801,
      "lat": 52.25045
    }
  },
  {
    "id": 2644299,
    "name": "Little Lever",
    "country": "GB",
    "coord": {
      "lon": -2.36667,
      "lat": 53.549999
    }
  },
  {
    "id": 2644307,
    "name": "Little Houghton",
    "country": "GB",
    "coord": {
      "lon": -1.35999,
      "lat": 53.545761
    }
  },
  {
    "id": 2644333,
    "name": "Little Eaton",
    "country": "GB",
    "coord": {
      "lon": -1.4595,
      "lat": 52.97028
    }
  },
  {
    "id": 2644350,
    "name": "Little Clacton",
    "country": "GB",
    "coord": {
      "lon": 1.14215,
      "lat": 51.825569
    }
  },
  {
    "id": 2644378,
    "name": "Little Barford",
    "country": "GB",
    "coord": {
      "lon": -0.2729,
      "lat": 52.198978
    }
  },
  {
    "id": 2644381,
    "name": "Little Amwell",
    "country": "GB",
    "coord": {
      "lon": -0.03333,
      "lat": 51.783329
    }
  },
  {
    "id": 2644398,
    "name": "Liss",
    "country": "GB",
    "coord": {
      "lon": -0.89393,
      "lat": 51.043961
    }
  },
  {
    "id": 2644400,
    "name": "Lisnaskea",
    "country": "GB",
    "coord": {
      "lon": -7.45,
      "lat": 54.25
    }
  },
  {
    "id": 2644409,
    "name": "Liskeard",
    "country": "GB",
    "coord": {
      "lon": -4.46517,
      "lat": 50.454498
    }
  },
  {
    "id": 2644419,
    "name": "Liphook",
    "country": "GB",
    "coord": {
      "lon": -0.8032,
      "lat": 51.07716
    }
  },
  {
    "id": 2644435,
    "name": "Linton",
    "country": "GB",
    "coord": {
      "lon": -2.5,
      "lat": 51.933331
    }
  },
  {
    "id": 2644437,
    "name": "Linthwaite",
    "country": "GB",
    "coord": {
      "lon": -1.85017,
      "lat": 53.62418
    }
  },
  {
    "id": 2644451,
    "name": "Lingwood",
    "country": "GB",
    "coord": {
      "lon": 1.48616,
      "lat": 52.62104
    }
  },
  {
    "id": 2644455,
    "name": "Lingfield",
    "country": "GB",
    "coord": {
      "lon": -0.01287,
      "lat": 51.17482
    }
  },
  {
    "id": 2644456,
    "name": "Lingen",
    "country": "GB",
    "coord": {
      "lon": -2.93333,
      "lat": 52.299999
    }
  },
  {
    "id": 2644495,
    "name": "Limekilns",
    "country": "GB",
    "coord": {
      "lon": -3.47713,
      "lat": 56.03336
    }
  },
  {
    "id": 2644501,
    "name": "Limavady",
    "country": "GB",
    "coord": {
      "lon": -6.95074,
      "lat": 55.050449
    }
  },
  {
    "id": 2644522,
    "name": "Lidlington",
    "country": "GB",
    "coord": {
      "lon": -0.55914,
      "lat": 52.041538
    }
  },
  {
    "id": 2644544,
    "name": "Leysdown-on-Sea",
    "country": "GB",
    "coord": {
      "lon": 0.92156,
      "lat": 51.397301
    }
  },
  {
    "id": 2644548,
    "name": "Leyburn",
    "country": "GB",
    "coord": {
      "lon": -1.83041,
      "lat": 54.31004
    }
  },
  {
    "id": 2644578,
    "name": "Leven",
    "country": "GB",
    "coord": {
      "lon": -0.31667,
      "lat": 53.883331
    }
  },
  {
    "id": 2644594,
    "name": "Letham",
    "country": "GB",
    "coord": {
      "lon": -2.76667,
      "lat": 56.616669
    }
  },
  {
    "id": 2644600,
    "name": "Lesmahagow",
    "country": "GB",
    "coord": {
      "lon": -3.88736,
      "lat": 55.636681
    }
  },
  {
    "id": 2644605,
    "name": "Lerwick",
    "country": "GB",
    "coord": {
      "lon": -1.14941,
      "lat": 60.15453
    }
  },
  {
    "id": 2644613,
    "name": "Leominster",
    "country": "GB",
    "coord": {
      "lon": -2.73907,
      "lat": 52.226521
    }
  },
  {
    "id": 2644622,
    "name": "Lennoxtown",
    "country": "GB",
    "coord": {
      "lon": -4.20001,
      "lat": 55.97263
    }
  },
  {
    "id": 2644624,
    "name": "Lenham",
    "country": "GB",
    "coord": {
      "lon": 0.71892,
      "lat": 51.237049
    }
  },
  {
    "id": 2644663,
    "name": "Leigh",
    "country": "GB",
    "coord": {
      "lon": -1.9,
      "lat": 51.616669
    }
  },
  {
    "id": 2644676,
    "name": "Leeswood",
    "country": "GB",
    "coord": {
      "lon": -3.09466,
      "lat": 53.133469
    }
  },
  {
    "id": 2644680,
    "name": "Lee-on-the-Solent",
    "country": "GB",
    "coord": {
      "lon": -1.20174,
      "lat": 50.801689
    }
  },
  {
    "id": 2644701,
    "name": "Ledston",
    "country": "GB",
    "coord": {
      "lon": -1.34355,
      "lat": 53.752541
    }
  },
  {
    "id": 2644702,
    "name": "Ledsham",
    "country": "GB",
    "coord": {
      "lon": -1.30857,
      "lat": 53.763222
    }
  },
  {
    "id": 2644703,
    "name": "Ledsham",
    "country": "GB",
    "coord": {
      "lon": -2.96667,
      "lat": 53.26667
    }
  },
  {
    "id": 2644707,
    "name": "Ledbury",
    "country": "GB",
    "coord": {
      "lon": -2.42635,
      "lat": 52.036388
    }
  },
  {
    "id": 2644710,
    "name": "Leconfield",
    "country": "GB",
    "coord": {
      "lon": -0.45729,
      "lat": 53.8773
    }
  },
  {
    "id": 2644719,
    "name": "Lechlade",
    "country": "GB",
    "coord": {
      "lon": -1.69128,
      "lat": 51.694031
    }
  },
  {
    "id": 2644731,
    "name": "Leasingham",
    "country": "GB",
    "coord": {
      "lon": -0.42606,
      "lat": 53.02573
    }
  },
  {
    "id": 2644771,
    "name": "Layer de la Haye",
    "country": "GB",
    "coord": {
      "lon": 0.85745,
      "lat": 51.845928
    }
  },
  {
    "id": 2644773,
    "name": "Laxton",
    "country": "GB",
    "coord": {
      "lon": -0.8,
      "lat": 53.716671
    }
  },
  {
    "id": 2644795,
    "name": "Law",
    "country": "GB",
    "coord": {
      "lon": -3.88333,
      "lat": 55.75
    }
  },
  {
    "id": 2644803,
    "name": "Lavenham",
    "country": "GB",
    "coord": {
      "lon": 0.79617,
      "lat": 52.108608
    }
  },
  {
    "id": 2644809,
    "name": "Laurencekirk",
    "country": "GB",
    "coord": {
      "lon": -2.4654,
      "lat": 56.833382
    }
  },
  {
    "id": 2644811,
    "name": "Launceston",
    "country": "GB",
    "coord": {
      "lon": -4.36006,
      "lat": 50.63699
    }
  },
  {
    "id": 2644818,
    "name": "Lauder",
    "country": "GB",
    "coord": {
      "lon": -2.74755,
      "lat": 55.719082
    }
  },
  {
    "id": 2644826,
    "name": "Lathbury",
    "country": "GB",
    "coord": {
      "lon": -0.72132,
      "lat": 52.098808
    }
  },
  {
    "id": 2644841,
    "name": "Lartington",
    "country": "GB",
    "coord": {
      "lon": -1.97239,
      "lat": 54.55415
    }
  },
  {
    "id": 2644860,
    "name": "Largs",
    "country": "GB",
    "coord": {
      "lon": -4.86337,
      "lat": 55.796291
    }
  },
  {
    "id": 2644867,
    "name": "Larbert",
    "country": "GB",
    "coord": {
      "lon": -3.82872,
      "lat": 56.022461
    }
  },
  {
    "id": 2644892,
    "name": "Llangwm",
    "country": "GB",
    "coord": {
      "lon": -4.91361,
      "lat": 51.748329
    }
  },
  {
    "id": 2644905,
    "name": "Langtoft",
    "country": "GB",
    "coord": {
      "lon": -0.3404,
      "lat": 52.698341
    }
  },
  {
    "id": 2644914,
    "name": "Langport",
    "country": "GB",
    "coord": {
      "lon": -2.82806,
      "lat": 51.037781
    }
  },
  {
    "id": 2644917,
    "name": "Langley Park",
    "country": "GB",
    "coord": {
      "lon": -1.67005,
      "lat": 54.799789
    }
  },
  {
    "id": 2644927,
    "name": "Langholm",
    "country": "GB",
    "coord": {
      "lon": -2.99889,
      "lat": 55.151009
    }
  },
  {
    "id": 2644929,
    "name": "Langho",
    "country": "GB",
    "coord": {
      "lon": -2.45076,
      "lat": 53.80217
    }
  },
  {
    "id": 2644932,
    "name": "Langham",
    "country": "GB",
    "coord": {
      "lon": -0.75385,
      "lat": 52.691521
    }
  },
  {
    "id": 2644937,
    "name": "Langford",
    "country": "GB",
    "coord": {
      "lon": -0.27165,
      "lat": 52.0546
    }
  },
  {
    "id": 2644963,
    "name": "Landore",
    "country": "GB",
    "coord": {
      "lon": -3.94143,
      "lat": 51.643959
    }
  },
  {
    "id": 2644967,
    "name": "Landewednack",
    "country": "GB",
    "coord": {
      "lon": -5.21035,
      "lat": 49.96991
    }
  },
  {
    "id": 2644968,
    "name": "Lanchester",
    "country": "GB",
    "coord": {
      "lon": -1.74256,
      "lat": 54.821079
    }
  },
  {
    "id": 2644976,
    "name": "Lanark",
    "country": "GB",
    "coord": {
      "lon": -3.7817,
      "lat": 55.67371
    }
  },
  {
    "id": 2644981,
    "name": "Lampeter",
    "country": "GB",
    "coord": {
      "lon": -4.08039,
      "lat": 52.11285
    }
  },
  {
    "id": 2645064,
    "name": "Ladybank",
    "country": "GB",
    "coord": {
      "lon": -3.1239,
      "lat": 56.274212
    }
  },
  {
    "id": 2645072,
    "name": "Lacock",
    "country": "GB",
    "coord": {
      "lon": -2.12194,
      "lat": 51.415279
    }
  },
  {
    "id": 2645080,
    "name": "Laceby",
    "country": "GB",
    "coord": {
      "lon": -0.1683,
      "lat": 53.54092
    }
  },
  {
    "id": 2645097,
    "name": "Knowsley",
    "country": "GB",
    "coord": {
      "lon": -2.85396,
      "lat": 53.45401
    }
  },
  {
    "id": 2645099,
    "name": "Knowle",
    "country": "GB",
    "coord": {
      "lon": -1.73333,
      "lat": 52.383331
    }
  },
  {
    "id": 2645102,
    "name": "Knottingley",
    "country": "GB",
    "coord": {
      "lon": -1.25639,
      "lat": 53.707779
    }
  },